{
"type": "FeatureCollection",
"name": "SELECT",
"crs": { "type": "name", "properties": { "name": "urn:ogc:def:crs:OGC:1.3:CRS84" } },
"features": [
{ "type": "Feature", "properties": { "NAME": "Mohegan", "NAMELSAD": "Mohegan Reservation", "GEOID": "2320R", "AIANNHR": "F" }, "geometry": { "type": "Point", "coordinates": [ -72.089329870359137, 41.485347734537363 ] } },
{ "type": "Feature", "properties": { "NAME": "Golden Hill Paugussett", "NAMELSAD": "Golden Hill Paugussett (state) Reservation", "GEOID": "9100R", "AIANNHR": "S" }, "geometry": { "type": "Point", "coordinates": [ -72.26800324624395, 41.552183182440977 ] } },
{ "type": "Feature", "properties": { "NAME": "Table Mountain", "NAMELSAD": "Table Mountain Rancheria", "GEOID": "4110R", "AIANNHR": "F" }, "geometry": { "type": "Point", "coordinates": [ -119.635679277470786, 36.984616080851943 ] } },
{ "type": "Feature", "properties": { "NAME": "Greenville", "NAMELSAD": "Greenville Rancheria", "GEOID": "1380R", "AIANNHR": "F" }, "geometry": { "type": "Point", "coordinates": [ -120.893398964671135, 40.148783930485401 ] } },
{ "type": "Feature", "properties": { "NAME": "Flathead", "NAMELSAD": "Flathead Reservation", "GEOID": "1110R", "AIANNHR": "F" }, "geometry": { "type": "Point", "coordinates": [ -114.280214797321506, 47.500177994350899 ] } },
{ "type": "Feature", "properties": { "NAME": "Bishop", "NAMELSAD": "Bishop Reservation", "GEOID": "0290R", "AIANNHR": "F" }, "geometry": { "type": "Point", "coordinates": [ -118.422654617582438, 37.366036748859727 ] } },
{ "type": "Feature", "properties": { "NAME": "Fallon Paiute-Shoshone", "NAMELSAD": "Fallon Paiute-Shoshone Reservation", "GEOID": "1075R", "AIANNHR": "F" }, "geometry": { "type": "Point", "coordinates": [ -118.618143329243708, 39.521005284906124 ] } },
{ "type": "Feature", "properties": { "NAME": "Walker River", "NAMELSAD": "Walker River Reservation", "GEOID": "4515R", "AIANNHR": "F" }, "geometry": { "type": "Point", "coordinates": [ -118.710959647043936, 38.996849709464286 ] } },
{ "type": "Feature", "properties": { "NAME": "Los Coyotes", "NAMELSAD": "Los Coyotes Reservation", "GEOID": "1995R", "AIANNHR": "F" }, "geometry": { "type": "Point", "coordinates": [ -116.556021755254264, 33.297701620480517 ] } },
{ "type": "Feature", "properties": { "NAME": "Manzanita", "NAMELSAD": "Manzanita Reservation", "GEOID": "2115R", "AIANNHR": "F" }, "geometry": { "type": "Point", "coordinates": [ -116.346112716018069, 32.754716948393472 ] } },
{ "type": "Feature", "properties": { "NAME": "Mesa Grande", "NAMELSAD": "Mesa Grande Reservation", "GEOID": "2190R", "AIANNHR": "F" }, "geometry": { "type": "Point", "coordinates": [ -116.747960284764858, 33.103475128610626 ] } },
{ "type": "Feature", "properties": { "NAME": "Pala", "NAMELSAD": "Pala Reservation", "GEOID": "2635R", "AIANNHR": "F" }, "geometry": { "type": "Point", "coordinates": [ -117.049032524418621, 33.361389399433854 ] } },
{ "type": "Feature", "properties": { "NAME": "Isabella", "NAMELSAD": "Isabella Reservation", "GEOID": "1610R", "AIANNHR": "F" }, "geometry": { "type": "Point", "coordinates": [ -84.776503096193579, 43.673475969409836 ] } },
{ "type": "Feature", "properties": { "NAME": "Mattaponi", "NAMELSAD": "Mattaponi (state) Reservation", "GEOID": "9230R", "AIANNHR": "S" }, "geometry": { "type": "Point", "coordinates": [ -76.914744789964786, 37.66245576448803 ] } },
{ "type": "Feature", "properties": { "NAME": "Roaring Creek", "NAMELSAD": "Roaring Creek Rancheria", "GEOID": "3185R", "AIANNHR": "F" }, "geometry": { "type": "Point", "coordinates": [ -121.953459941004368, 40.89332375757435 ] } },
{ "type": "Feature", "properties": { "NAME": "Pojoaque", "NAMELSAD": "Pueblo of Pojoaque", "GEOID": "2990R", "AIANNHR": "F" }, "geometry": { "type": "Point", "coordinates": [ -106.026241732477814, 35.893594132742955 ] } },
{ "type": "Feature", "properties": { "NAME": "Rosebud", "NAMELSAD": "Rosebud Indian Reservation", "GEOID": "3235R", "AIANNHR": "F" }, "geometry": { "type": "Point", "coordinates": [ -100.71842849043145, 43.193403775620283 ] } },
{ "type": "Feature", "properties": { "NAME": "Woodfords", "NAMELSAD": "Woodfords Community", "GEOID": "4665R", "AIANNHR": "F" }, "geometry": { "type": "Point", "coordinates": [ -119.794154920372392, 38.800483317717166 ] } },
{ "type": "Feature", "properties": { "NAME": "Spokane", "NAMELSAD": "Spokane Reservation", "GEOID": "3940R", "AIANNHR": "F" }, "geometry": { "type": "Point", "coordinates": [ -118.042951962370765, 47.928270731617935 ] } },
{ "type": "Feature", "properties": { "NAME": "Chitimacha", "NAMELSAD": "Chitimacha Reservation", "GEOID": "0635R", "AIANNHR": "F" }, "geometry": { "type": "Point", "coordinates": [ -91.536440046062296, 29.878036192154649 ] } },
{ "type": "Feature", "properties": { "NAME": "Coos, Lower Umpqua, and Siuslaw", "NAMELSAD": "Coos, Lower Umpqua, and Siuslaw Reservation", "GEOID": "0770R", "AIANNHR": "F" }, "geometry": { "type": "Point", "coordinates": [ -124.362980709084525, 43.079166894889511 ] } },
{ "type": "Feature", "properties": { "NAME": "Pascua Pueblo Yaqui", "NAMELSAD": "Pascua Pueblo Yaqui Reservation", "GEOID": "2680R", "AIANNHR": "F" }, "geometry": { "type": "Point", "coordinates": [ -111.0821091174099, 32.111714796152349 ] } },
{ "type": "Feature", "properties": { "NAME": "Berry Creek", "NAMELSAD": "Berry Creek Rancheria", "GEOID": "0200R", "AIANNHR": "F" }, "geometry": { "type": "Point", "coordinates": [ -121.32788342980686, 39.625608874034803 ] } },
{ "type": "Feature", "properties": { "NAME": "Enterprise", "NAMELSAD": "Enterprise Rancheria", "GEOID": "1055R", "AIANNHR": "F" }, "geometry": { "type": "Point", "coordinates": [ -121.355480156645442, 39.561637987959067 ] } },
{ "type": "Feature", "properties": { "NAME": "Shakopee Mdewakanton Sioux", "NAMELSAD": "Shakopee Mdewakanton Sioux Community", "GEOID": "3680R", "AIANNHR": "F" }, "geometry": { "type": "Point", "coordinates": [ -93.458299910160676, 44.745671124183687 ] } },
{ "type": "Feature", "properties": { "NAME": "Santa Rosa", "NAMELSAD": "Santa Rosa Rancheria", "GEOID": "3520R", "AIANNHR": "F" }, "geometry": { "type": "Point", "coordinates": [ -119.755132665039866, 36.236110841323708 ] } },
{ "type": "Feature", "properties": { "NAME": "L'Anse", "NAMELSAD": "L'Anse Reservation", "GEOID": "1880R", "AIANNHR": "F" }, "geometry": { "type": "Point", "coordinates": [ -88.402937079068749, 46.781345735333701 ] } },
{ "type": "Feature", "properties": { "NAME": "Paucatuck Eastern Pequot", "NAMELSAD": "Paucatuck Eastern Pequot (state) Reservation", "GEOID": "9280R", "AIANNHR": "S" }, "geometry": { "type": "Point", "coordinates": [ -71.938299867786881, 41.445272499919589 ] } },
{ "type": "Feature", "properties": { "NAME": "Mississippi Choctaw", "NAMELSAD": "Mississippi Choctaw Reservation", "GEOID": "2300R", "AIANNHR": "F" }, "geometry": { "type": "Point", "coordinates": [ -89.182914149234961, 32.737964087930649 ] } },
{ "type": "Feature", "properties": { "NAME": "Duck Valley", "NAMELSAD": "Duck Valley Reservation", "GEOID": "0965R", "AIANNHR": "F" }, "geometry": { "type": "Point", "coordinates": [ -116.18403383653326, 41.997757353301452 ] } },
{ "type": "Feature", "properties": { "NAME": "Southern Ute", "NAMELSAD": "Southern Ute Reservation", "GEOID": "3925R", "AIANNHR": "F" }, "geometry": { "type": "Point", "coordinates": [ -107.643709071359865, 37.107983937143459 ] } },
{ "type": "Feature", "properties": { "NAME": "Ute Mountain", "NAMELSAD": "Ute Mountain Reservation", "GEOID": "4470R", "AIANNHR": "F" }, "geometry": { "type": "Point", "coordinates": [ -108.650762830147812, 37.096983903348317 ] } },
{ "type": "Feature", "properties": { "NAME": "Shoalwater Bay", "NAMELSAD": "Shoalwater Bay Indian Reservation", "GEOID": "3780R", "AIANNHR": "F" }, "geometry": { "type": "Point", "coordinates": [ -124.026038863142787, 46.723194618878281 ] } },
{ "type": "Feature", "properties": { "NAME": "Pamunkey", "NAMELSAD": "Pamunkey (state) Reservation", "GEOID": "9260R", "AIANNHR": "S" }, "geometry": { "type": "Point", "coordinates": [ -77.004005455825691, 37.572326948589868 ] } },
{ "type": "Feature", "properties": { "NAME": "Lower Sioux", "NAMELSAD": "Lower Sioux Indian Community", "GEOID": "2055R", "AIANNHR": "F" }, "geometry": { "type": "Point", "coordinates": [ -94.988132729774222, 44.529914398234261 ] } },
{ "type": "Feature", "properties": { "NAME": "Redwood Valley", "NAMELSAD": "Redwood Valley Rancheria", "GEOID": "3115R", "AIANNHR": "F" }, "geometry": { "type": "Point", "coordinates": [ -123.189353150543653, 39.287995870620421 ] } },
{ "type": "Feature", "properties": { "NAME": "Sherwood Valley", "NAMELSAD": "Sherwood Valley Rancheria", "GEOID": "3735R", "AIANNHR": "F" }, "geometry": { "type": "Point", "coordinates": [ -123.467661985468084, 39.514304027809168 ] } },
{ "type": "Feature", "properties": { "NAME": "Middletown", "NAMELSAD": "Middletown Rancheria", "GEOID": "2255R", "AIANNHR": "F" }, "geometry": { "type": "Point", "coordinates": [ -122.625846699613447, 38.728675630755156 ] } },
{ "type": "Feature", "properties": { "NAME": "Paiute (UT)", "NAMELSAD": "Paiute (UT) Reservation", "GEOID": "2625R", "AIANNHR": "F" }, "geometry": { "type": "Point", "coordinates": [ -113.605340575335632, 37.32415473917726 ] } },
{ "type": "Feature", "properties": { "NAME": "San Pasqual", "NAMELSAD": "San Pasqual Reservation", "GEOID": "3460R", "AIANNHR": "F" }, "geometry": { "type": "Point", "coordinates": [ -116.971819913288584, 33.20581644127568 ] } },
{ "type": "Feature", "properties": { "NAME": "Santa Ysabel", "NAMELSAD": "Santa Ysabel Reservation", "GEOID": "3550R", "AIANNHR": "F" }, "geometry": { "type": "Point", "coordinates": [ -116.691353930173094, 33.165732293765529 ] } },
{ "type": "Feature", "properties": { "NAME": "Fort Berthold", "NAMELSAD": "Fort Berthold Reservation", "GEOID": "1160R", "AIANNHR": "F" }, "geometry": { "type": "Point", "coordinates": [ -102.277806737659887, 47.743047071891915 ] } },
{ "type": "Feature", "properties": { "NAME": "Mooretown", "NAMELSAD": "Mooretown Rancheria", "GEOID": "2340R", "AIANNHR": "F" }, "geometry": { "type": "Point", "coordinates": [ -121.519733474809655, 39.467068590806825 ] } },
{ "type": "Feature", "properties": { "NAME": "Shinnecock", "NAMELSAD": "Shinnecock (state) Reservation", "GEOID": "9370R", "AIANNHR": "S" }, "geometry": { "type": "Point", "coordinates": [ -72.430969932783327, 40.873761575781053 ] } },
{ "type": "Feature", "properties": { "NAME": "Pine Ridge", "NAMELSAD": "Pine Ridge Reservation", "GEOID": "2810R", "AIANNHR": "F" }, "geometry": { "type": "Point", "coordinates": [ -102.088914935986267, 43.352883338860629 ] } },
{ "type": "Feature", "properties": { "NAME": "Little Traverse Bay", "NAMELSAD": "Little Traverse Bay Reservation", "GEOID": "1963R", "AIANNHR": "F" }, "geometry": { "type": "Point", "coordinates": [ -84.981710298363595, 45.460854203915396 ] } },
{ "type": "Feature", "properties": { "NAME": "Pleasant Point", "NAMELSAD": "Pleasant Point Reservation", "GEOID": "2850R", "AIANNHR": "F" }, "geometry": { "type": "Point", "coordinates": [ -67.05242029075832, 44.960553600343033 ] } },
{ "type": "Feature", "properties": { "NAME": "Miccosukee", "NAMELSAD": "Miccosukee Reservation", "GEOID": "2240R", "AIANNHR": "F" }, "geometry": { "type": "Point", "coordinates": [ -80.822879825027542, 26.135160289897264 ] } },
{ "type": "Feature", "properties": { "NAME": "Laytonville", "NAMELSAD": "Laytonville Rancheria", "GEOID": "1925R", "AIANNHR": "F" }, "geometry": { "type": "Point", "coordinates": [ -123.500681767746457, 39.66929027040981 ] } },
{ "type": "Feature", "properties": { "NAME": "Manchester-Point Arena", "NAMELSAD": "Manchester-Point Arena Rancheria", "GEOID": "2100R", "AIANNHR": "F" }, "geometry": { "type": "Point", "coordinates": [ -123.677088158522537, 38.939685287134992 ] } },
{ "type": "Feature", "properties": { "NAME": "Iowa (KS-NE)", "NAMELSAD": "Iowa (KS-NE) Reservation", "GEOID": "1590R", "AIANNHR": "F" }, "geometry": { "type": "Point", "coordinates": [ -95.386573902214266, 39.994896708713092 ] } },
{ "type": "Feature", "properties": { "NAME": "Sac and Fox Nation", "NAMELSAD": "Sac and Fox Nation Reservation", "GEOID": "3285R", "AIANNHR": "F" }, "geometry": { "type": "Point", "coordinates": [ -95.513077504642155, 40.009483237393532 ] } },
{ "type": "Feature", "properties": { "NAME": "Lytton", "NAMELSAD": "Lytton Rancheria", "GEOID": "2075R", "AIANNHR": "F" }, "geometry": { "type": "Point", "coordinates": [ -122.334378115448018, 37.952622117519411 ] } },
{ "type": "Feature", "properties": { "NAME": "Yavapai-Apache Nation", "NAMELSAD": "Yavapai-Apache Nation Reservation", "GEOID": "4708R", "AIANNHR": "F" }, "geometry": { "type": "Point", "coordinates": [ -111.914127639679677, 34.628838783371656 ] } },
{ "type": "Feature", "properties": { "NAME": "Cabazon", "NAMELSAD": "Cabazon Reservation", "GEOID": "0415R", "AIANNHR": "F" }, "geometry": { "type": "Point", "coordinates": [ -116.147865569194906, 33.662416305353133 ] } },
{ "type": "Feature", "properties": { "NAME": "Ysleta del Sur", "NAMELSAD": "Ysleta del Sur Pueblo", "GEOID": "4755R", "AIANNHR": "F" }, "geometry": { "type": "Point", "coordinates": [ -106.161395206087718, 31.821800888917746 ] } },
{ "type": "Feature", "properties": { "NAME": "Ohkay Owingeh", "NAMELSAD": "Ohkay Owingeh", "GEOID": "2510R", "AIANNHR": "F" }, "geometry": { "type": "Point", "coordinates": [ -106.071914188757006, 36.053266040828355 ] } },
{ "type": "Feature", "properties": { "NAME": "Robinson", "NAMELSAD": "Robinson Rancheria", "GEOID": "3195R", "AIANNHR": "F" }, "geometry": { "type": "Point", "coordinates": [ -122.904964651388767, 39.17280205899138 ] } },
{ "type": "Feature", "properties": { "NAME": "Zia", "NAMELSAD": "Zia Pueblo", "GEOID": "4770R", "AIANNHR": "F" }, "geometry": { "type": "Point", "coordinates": [ -106.77632582896446, 35.546548463637713 ] } },
{ "type": "Feature", "properties": { "NAME": "Warm Springs", "NAMELSAD": "Warm Springs Reservation", "GEOID": "4545R", "AIANNHR": "F" }, "geometry": { "type": "Point", "coordinates": [ -121.460865010313583, 44.864288842413067 ] } },
{ "type": "Feature", "properties": { "NAME": "North Fork", "NAMELSAD": "North Fork Rancheria", "GEOID": "2495R", "AIANNHR": "F" }, "geometry": { "type": "Point", "coordinates": [ -119.513527613160747, 37.227500852556695 ] } },
{ "type": "Feature", "properties": { "NAME": "Picayune", "NAMELSAD": "Picayune Rancheria", "GEOID": "2775R", "AIANNHR": "F" }, "geometry": { "type": "Point", "coordinates": [ -119.695549974472726, 37.212016571410537 ] } },
{ "type": "Feature", "properties": { "NAME": "Fort Independence", "NAMELSAD": "Fort Independence Reservation", "GEOID": "1195R", "AIANNHR": "F" }, "geometry": { "type": "Point", "coordinates": [ -118.228936272588726, 36.841117923106353 ] } },
{ "type": "Feature", "properties": { "NAME": "Lone Pine", "NAMELSAD": "Lone Pine Reservation", "GEOID": "1970R", "AIANNHR": "F" }, "geometry": { "type": "Point", "coordinates": [ -118.056042096762425, 36.596883130950481 ] } },
{ "type": "Feature", "properties": { "NAME": "Timbi-Sha Shoshone", "NAMELSAD": "Timbi-Sha Shoshone Reservation", "GEOID": "4180R", "AIANNHR": "F" }, "geometry": { "type": "Point", "coordinates": [ -117.19812145277659, 37.14239078423217 ] } },
{ "type": "Feature", "properties": { "NAME": "Isleta", "NAMELSAD": "Isleta Pueblo", "GEOID": "1625R", "AIANNHR": "F" }, "geometry": { "type": "Point", "coordinates": [ -106.664641984753331, 34.888249755963059 ] } },
{ "type": "Feature", "properties": { "NAME": "Big Lagoon", "NAMELSAD": "Big Lagoon Rancheria", "GEOID": "0240R", "AIANNHR": "F" }, "geometry": { "type": "Point", "coordinates": [ -124.120787969959125, 41.164258663622391 ] } },
{ "type": "Feature", "properties": { "NAME": "Blue Lake", "NAMELSAD": "Blue Lake Rancheria", "GEOID": "0325R", "AIANNHR": "F" }, "geometry": { "type": "Point", "coordinates": [ -123.998051835752378, 40.88335465796041 ] } },
{ "type": "Feature", "properties": { "NAME": "Prairie Band of Potawatomi Nation", "NAMELSAD": "Prairie Band of Potawatomi Nation Reservation", "GEOID": "2980R", "AIANNHR": "F" }, "geometry": { "type": "Point", "coordinates": [ -95.840156912700209, 39.340711803509919 ] } },
{ "type": "Feature", "properties": { "NAME": "Crow Creek", "NAMELSAD": "Crow Creek Reservation", "GEOID": "0855R", "AIANNHR": "F" }, "geometry": { "type": "Point", "coordinates": [ -99.474452945112532, 44.128725989637168 ] } },
{ "type": "Feature", "properties": { "NAME": "Benton Paiute", "NAMELSAD": "Benton Paiute Reservation", "GEOID": "0185R", "AIANNHR": "F" }, "geometry": { "type": "Point", "coordinates": [ -118.520934961317565, 37.793445303896824 ] } },
{ "type": "Feature", "properties": { "NAME": "Bridgeport", "NAMELSAD": "Bridgeport Reservation", "GEOID": "0350R", "AIANNHR": "F" }, "geometry": { "type": "Point", "coordinates": [ -119.215639847576369, 38.266491887333622 ] } },
{ "type": "Feature", "properties": { "NAME": "Pinoleville", "NAMELSAD": "Pinoleville Rancheria", "GEOID": "2820R", "AIANNHR": "F" }, "geometry": { "type": "Point", "coordinates": [ -123.217796482203624, 39.180185701047094 ] } },
{ "type": "Feature", "properties": { "NAME": "Hollywood", "NAMELSAD": "Hollywood Reservation", "GEOID": "1475R", "AIANNHR": "F" }, "geometry": { "type": "Point", "coordinates": [ -80.212467127349541, 26.041996401913291 ] } },
{ "type": "Feature", "properties": { "NAME": "Cochiti", "NAMELSAD": "Pueblo de Cochiti", "GEOID": "0680R", "AIANNHR": "F" }, "geometry": { "type": "Point", "coordinates": [ -106.320845804485984, 35.61695141069589 ] } },
{ "type": "Feature", "properties": { "NAME": "Nambe", "NAMELSAD": "Nambe Pueblo", "GEOID": "2400R", "AIANNHR": "F" }, "geometry": { "type": "Point", "coordinates": [ -105.935975537645461, 35.87597486311914 ] } },
{ "type": "Feature", "properties": { "NAME": "San Ildefonso", "NAMELSAD": "San Ildefonso Pueblo", "GEOID": "3415R", "AIANNHR": "F" }, "geometry": { "type": "Point", "coordinates": [ -106.147098934069717, 35.881948505050353 ] } },
{ "type": "Feature", "properties": { "NAME": "Santa Clara", "NAMELSAD": "Santa Clara Pueblo", "GEOID": "3495R", "AIANNHR": "F" }, "geometry": { "type": "Point", "coordinates": [ -106.221741594764325, 35.977289183691703 ] } },
{ "type": "Feature", "properties": { "NAME": "Santo Domingo", "NAMELSAD": "Santo Domingo Pueblo", "GEOID": "3585R", "AIANNHR": "F" }, "geometry": { "type": "Point", "coordinates": [ -106.381154500302557, 35.530768069112483 ] } },
{ "type": "Feature", "properties": { "NAME": "Inaja and Cosmit", "NAMELSAD": "Inaja and Cosmit Reservation", "GEOID": "1560R", "AIANNHR": "F" }, "geometry": { "type": "Point", "coordinates": [ -116.641642281862588, 33.010512286355734 ] } },
{ "type": "Feature", "properties": { "NAME": "Jamul", "NAMELSAD": "Jamul Indian Village", "GEOID": "1670R", "AIANNHR": "F" }, "geometry": { "type": "Point", "coordinates": [ -116.870852392283382, 32.702650892280488 ] } },
{ "type": "Feature", "properties": { "NAME": "La Jolla", "NAMELSAD": "La Jolla Reservation", "GEOID": "1850R", "AIANNHR": "F" }, "geometry": { "type": "Point", "coordinates": [ -116.876714147655775, 33.275792196432867 ] } },
{ "type": "Feature", "properties": { "NAME": "Onondaga Nation", "NAMELSAD": "Onondaga Nation Reservation", "GEOID": "2570R", "AIANNHR": "F" }, "geometry": { "type": "Point", "coordinates": [ -76.157658338136315, 42.940127635617351 ] } },
{ "type": "Feature", "properties": { "NAME": "St. Regis Mohawk", "NAMELSAD": "St. Regis Mohawk Reservation", "GEOID": "3320R", "AIANNHR": "F" }, "geometry": { "type": "Point", "coordinates": [ -74.647313910681717, 44.978904604166225 ] } },
{ "type": "Feature", "properties": { "NAME": "Tohono O'odham Nation", "NAMELSAD": "Tohono O'odham Nation Reservation", "GEOID": "4200R", "AIANNHR": "F" }, "geometry": { "type": "Point", "coordinates": [ -112.045125716482104, 32.150556629880995 ] } },
{ "type": "Feature", "properties": { "NAME": "Grand Traverse", "NAMELSAD": "Grand Traverse Reservation", "GEOID": "1370R", "AIANNHR": "F" }, "geometry": { "type": "Point", "coordinates": [ -85.605695936908248, 45.01996368039746 ] } },
{ "type": "Feature", "properties": { "NAME": "Little River", "NAMELSAD": "Little River Reservation", "GEOID": "1960R", "AIANNHR": "F" }, "geometry": { "type": "Point", "coordinates": [ -86.24846683270593, 44.28607915850759 ] } },
{ "type": "Feature", "properties": { "NAME": "Grand Ronde", "NAMELSAD": "Grand Ronde Community", "GEOID": "1365R", "AIANNHR": "F" }, "geometry": { "type": "Point", "coordinates": [ -123.640817398855219, 45.142573311959815 ] } },
{ "type": "Feature", "properties": { "NAME": "Kaibab", "NAMELSAD": "Kaibab Indian Reservation", "GEOID": "1720R", "AIANNHR": "F" }, "geometry": { "type": "Point", "coordinates": [ -112.679675658771927, 36.91279934840879 ] } },
{ "type": "Feature", "properties": { "NAME": "Augustine", "NAMELSAD": "Augustine Reservation", "GEOID": "0125R", "AIANNHR": "F" }, "geometry": { "type": "Point", "coordinates": [ -116.191202224439195, 33.649863069288614 ] } },
{ "type": "Feature", "properties": { "NAME": "Port Gamble", "NAMELSAD": "Port Gamble Reservation", "GEOID": "2910R", "AIANNHR": "F" }, "geometry": { "type": "Point", "coordinates": [ -122.558104611136585, 47.847957958683743 ] } },
{ "type": "Feature", "properties": { "NAME": "Quartz Valley", "NAMELSAD": "Quartz Valley Reservation", "GEOID": "3020R", "AIANNHR": "F" }, "geometry": { "type": "Point", "coordinates": [ -122.972358988407393, 41.61148354096035 ] } },
{ "type": "Feature", "properties": { "NAME": "Oneida Indian Nation", "NAMELSAD": "Oneida Indian Nation Reservation", "GEOID": "2555R", "AIANNHR": "F" }, "geometry": { "type": "Point", "coordinates": [ -75.693327806186687, 43.073769588321071 ] } },
{ "type": "Feature", "properties": { "NAME": "San Carlos", "NAMELSAD": "San Carlos Reservation", "GEOID": "3355R", "AIANNHR": "F" }, "geometry": { "type": "Point", "coordinates": [ -110.16123731780462, 33.332600043619358 ] } },
{ "type": "Feature", "properties": { "NAME": "Tonto Apache", "NAMELSAD": "Tonto Apache Reservation", "GEOID": "4235R", "AIANNHR": "F" }, "geometry": { "type": "Point", "coordinates": [ -111.328372829930657, 34.220943369426465 ] } },
{ "type": "Feature", "properties": { "NAME": "Sulphur Bank", "NAMELSAD": "Sulphur Bank Rancheria", "GEOID": "4030R", "AIANNHR": "F" }, "geometry": { "type": "Point", "coordinates": [ -122.670306296730459, 39.008662999273163 ] } },
{ "type": "Feature", "properties": { "NAME": "Dry Creek", "NAMELSAD": "Dry Creek Rancheria", "GEOID": "0955R", "AIANNHR": "F" }, "geometry": { "type": "Point", "coordinates": [ -122.856496499704733, 38.702497358238737 ] } },
{ "type": "Feature", "properties": { "NAME": "Stewarts Point", "NAMELSAD": "Stewarts Point Rancheria", "GEOID": "3985R", "AIANNHR": "F" }, "geometry": { "type": "Point", "coordinates": [ -123.339020324903544, 38.65660259758252 ] } },
{ "type": "Feature", "properties": { "NAME": "Match-e-be-nash-she-wish Band of Pottawatomi", "NAMELSAD": "Match-e-be-nash-she-wish Band of Pottawatomi Reservation", "GEOID": "2150R", "AIANNHR": "F" }, "geometry": { "type": "Point", "coordinates": [ -85.657207006057476, 42.63406524602987 ] } },
{ "type": "Feature", "properties": { "NAME": "Stewart", "NAMELSAD": "Stewart Community", "GEOID": "3980R", "AIANNHR": "F" }, "geometry": { "type": "Point", "coordinates": [ -119.799339524038928, 39.067168181894139 ] } },
{ "type": "Feature", "properties": { "NAME": "Klamath", "NAMELSAD": "Klamath Reservation", "GEOID": "1785R", "AIANNHR": "F" }, "geometry": { "type": "Point", "coordinates": [ -121.647786503702022, 42.511920009027101 ] } },
{ "type": "Feature", "properties": { "NAME": "Hoopa Valley", "NAMELSAD": "Hoopa Valley Reservation", "GEOID": "1490R", "AIANNHR": "F" }, "geometry": { "type": "Point", "coordinates": [ -123.672543022854313, 41.099210144576752 ] } },
{ "type": "Feature", "properties": { "NAME": "Fort Mojave", "NAMELSAD": "Fort Mojave Reservation", "GEOID": "1235R", "AIANNHR": "F" }, "geometry": { "type": "Point", "coordinates": [ -114.609406697935853, 34.943020652207856 ] } },
{ "type": "Feature", "properties": { "NAME": "Smith River", "NAMELSAD": "Smith River Rancheria", "GEOID": "3855R", "AIANNHR": "F" }, "geometry": { "type": "Point", "coordinates": [ -124.204041684345597, 41.953993540639054 ] } },
{ "type": "Feature", "properties": { "NAME": "Duckwater", "NAMELSAD": "Duckwater Reservation", "GEOID": "0975R", "AIANNHR": "F" }, "geometry": { "type": "Point", "coordinates": [ -115.710232042124005, 38.930200041529638 ] } },
{ "type": "Feature", "properties": { "NAME": "Redding", "NAMELSAD": "Redding Rancheria", "GEOID": "3095R", "AIANNHR": "F" }, "geometry": { "type": "Point", "coordinates": [ -122.38527046733202, 40.508667669749364 ] } },
{ "type": "Feature", "properties": { "NAME": "Chicken Ranch", "NAMELSAD": "Chicken Ranch Rancheria", "GEOID": "0620R", "AIANNHR": "F" }, "geometry": { "type": "Point", "coordinates": [ -120.452590661155909, 37.92849967109224 ] } },
{ "type": "Feature", "properties": { "NAME": "Tuolumne", "NAMELSAD": "Tuolumne Rancheria", "GEOID": "4330R", "AIANNHR": "F" }, "geometry": { "type": "Point", "coordinates": [ -120.237943625973415, 37.980780864567173 ] } },
{ "type": "Feature", "properties": { "NAME": "Fort Pierce", "NAMELSAD": "Fort Pierce Reservation", "GEOID": "1260R", "AIANNHR": "F" }, "geometry": { "type": "Point", "coordinates": [ -80.434890894957221, 27.402102761620306 ] } },
{ "type": "Feature", "properties": { "NAME": "La Posta", "NAMELSAD": "La Posta Indian Reservation", "GEOID": "1895R", "AIANNHR": "F" }, "geometry": { "type": "Point", "coordinates": [ -116.391248699294479, 32.734508814546345 ] } },
{ "type": "Feature", "properties": { "NAME": "Coeur d'Alene", "NAMELSAD": "Coeur d'Alene Reservation", "GEOID": "0705R", "AIANNHR": "F" }, "geometry": { "type": "Point", "coordinates": [ -116.827160804377058, 47.30391803065352 ] } },
{ "type": "Feature", "properties": { "NAME": "Nez Perce", "NAMELSAD": "Nez Perce Reservation", "GEOID": "2445R", "AIANNHR": "F" }, "geometry": { "type": "Point", "coordinates": [ -116.40793512246043, 46.307674284168783 ] } },
{ "type": "Feature", "properties": { "NAME": "Big Pine", "NAMELSAD": "Big Pine Reservation", "GEOID": "0250R", "AIANNHR": "F" }, "geometry": { "type": "Point", "coordinates": [ -118.285065457290017, 37.158960298174712 ] } },
{ "type": "Feature", "properties": { "NAME": "Fort Sill Apache", "NAMELSAD": "Fort Sill Apache Indian Reservation", "GEOID": "1270R", "AIANNHR": "F" }, "geometry": { "type": "Point", "coordinates": [ -107.421431320792109, 32.241491027738263 ] } },
{ "type": "Feature", "properties": { "NAME": "Capitan Grande", "NAMELSAD": "Capitan Grande Reservation", "GEOID": "0495R", "AIANNHR": "F" }, "geometry": { "type": "Point", "coordinates": [ -116.73375616620369, 32.915165048925296 ] } },
{ "type": "Feature", "properties": { "NAME": "Ewiiaapaayp", "NAMELSAD": "Ewiiaapaayp Reservation", "GEOID": "1065R", "AIANNHR": "F" }, "geometry": { "type": "Point", "coordinates": [ -116.385627847095819, 32.841633497130005 ] } },
{ "type": "Feature", "properties": { "NAME": "Laguna", "NAMELSAD": "Laguna Pueblo", "GEOID": "1840R", "AIANNHR": "F" }, "geometry": { "type": "Point", "coordinates": [ -107.253051607342456, 35.033621258757115 ] } },
{ "type": "Feature", "properties": { "NAME": "Navajo Nation", "NAMELSAD": "Navajo Nation Reservation", "GEOID": "2430R", "AIANNHR": "F" }, "geometry": { "type": "Point", "coordinates": [ -109.905867044531078, 36.201307223713918 ] } },
{ "type": "Feature", "properties": { "NAME": "Summit Lake", "NAMELSAD": "Summit Lake Reservation", "GEOID": "4045R", "AIANNHR": "F" }, "geometry": { "type": "Point", "coordinates": [ -119.052250532889502, 41.524284445620509 ] } },
{ "type": "Feature", "properties": { "NAME": "Rumsey", "NAMELSAD": "Rumsey Indian Rancheria", "GEOID": "3265R", "AIANNHR": "F" }, "geometry": { "type": "Point", "coordinates": [ -122.136388350939058, 38.740509716150875 ] } },
{ "type": "Feature", "properties": { "NAME": "Tampa", "NAMELSAD": "Tampa Reservation", "GEOID": "4130R", "AIANNHR": "F" }, "geometry": { "type": "Point", "coordinates": [ -82.371264443788675, 27.993938408457449 ] } },
{ "type": "Feature", "properties": { "NAME": "Forest County Potawatomi", "NAMELSAD": "Forest County Potawatomi Community", "GEOID": "1135R", "AIANNHR": "F" }, "geometry": { "type": "Point", "coordinates": [ -88.626964758005556, 45.490091623059691 ] } },
{ "type": "Feature", "properties": { "NAME": "Sokaogon Chippewa", "NAMELSAD": "Sokaogon Chippewa Community", "GEOID": "3885R", "AIANNHR": "F" }, "geometry": { "type": "Point", "coordinates": [ -88.987681671589499, 45.491978335585387 ] } },
{ "type": "Feature", "properties": { "NAME": "Skull Valley", "NAMELSAD": "Skull Valley Reservation", "GEOID": "3840R", "AIANNHR": "F" }, "geometry": { "type": "Point", "coordinates": [ -112.735809362668007, 40.387419631545114 ] } },
{ "type": "Feature", "properties": { "NAME": "Indian Township", "NAMELSAD": "Indian Township Reservation", "GEOID": "1575R", "AIANNHR": "F" }, "geometry": { "type": "Point", "coordinates": [ -67.612148920508261, 45.26539608393967 ] } },
{ "type": "Feature", "properties": { "NAME": "Yavapai-Prescott", "NAMELSAD": "Yavapai-Prescott Reservation", "GEOID": "4710R", "AIANNHR": "F" }, "geometry": { "type": "Point", "coordinates": [ -112.448269820305953, 34.55642767445454 ] } },
{ "type": "Feature", "properties": { "NAME": "Cocopah", "NAMELSAD": "Cocopah Reservation", "GEOID": "0695R", "AIANNHR": "F" }, "geometry": { "type": "Point", "coordinates": [ -114.747141287294539, 32.611845518826364 ] } },
{ "type": "Feature", "properties": { "NAME": "Fort Yuma", "NAMELSAD": "Fort Yuma Indian Reservation", "GEOID": "1280R", "AIANNHR": "F" }, "geometry": { "type": "Point", "coordinates": [ -114.646367982130954, 32.784099183107308 ] } },
{ "type": "Feature", "properties": { "NAME": "Fort Belknap", "NAMELSAD": "Fort Belknap Reservation", "GEOID": "1150R", "AIANNHR": "F" }, "geometry": { "type": "Point", "coordinates": [ -108.611322722958334, 48.205160171442195 ] } },
{ "type": "Feature", "properties": { "NAME": "Upper Lake", "NAMELSAD": "Upper Lake Rancheria", "GEOID": "4430R", "AIANNHR": "F" }, "geometry": { "type": "Point", "coordinates": [ -122.920237150615534, 39.18982411514547 ] } },
{ "type": "Feature", "properties": { "NAME": "Leech Lake", "NAMELSAD": "Leech Lake Reservation", "GEOID": "1940R", "AIANNHR": "F" }, "geometry": { "type": "Point", "coordinates": [ -94.256708504447531, 47.355613112399993 ] } },
{ "type": "Feature", "properties": { "NAME": "White Earth", "NAMELSAD": "White Earth Reservation", "GEOID": "4595R", "AIANNHR": "F" }, "geometry": { "type": "Point", "coordinates": [ -95.721738441880873, 47.22760291925799 ] } },
{ "type": "Feature", "properties": { "NAME": "Cheyenne River", "NAMELSAD": "Cheyenne River Reservation", "GEOID": "0605R", "AIANNHR": "F" }, "geometry": { "type": "Point", "coordinates": [ -101.225713313173557, 45.077690224281909 ] } },
{ "type": "Feature", "properties": { "NAME": "Hoh", "NAMELSAD": "Hoh Indian Reservation", "GEOID": "1460R", "AIANNHR": "F" }, "geometry": { "type": "Point", "coordinates": [ -124.420155063169815, 47.740785984270019 ] } },
{ "type": "Feature", "properties": { "NAME": "Kootenai", "NAMELSAD": "Kootenai Reservation", "GEOID": "1800R", "AIANNHR": "F" }, "geometry": { "type": "Point", "coordinates": [ -116.369829774362231, 48.70774762316686 ] } },
{ "type": "Feature", "properties": { "NAME": "Carson", "NAMELSAD": "Carson Colony", "GEOID": "0510R", "AIANNHR": "F" }, "geometry": { "type": "Point", "coordinates": [ -119.775710992102219, 39.139340652462117 ] } },
{ "type": "Feature", "properties": { "NAME": "Crow", "NAMELSAD": "Crow Reservation", "GEOID": "0845R", "AIANNHR": "F" }, "geometry": { "type": "Point", "coordinates": [ -107.750815278252517, 45.379452765321425 ] } },
{ "type": "Feature", "properties": { "NAME": "Spirit Lake", "NAMELSAD": "Spirit Lake Reservation", "GEOID": "3935R", "AIANNHR": "F" }, "geometry": { "type": "Point", "coordinates": [ -98.883801564004628, 47.910502197238863 ] } },
{ "type": "Feature", "properties": { "NAME": "Omaha", "NAMELSAD": "Omaha Reservation", "GEOID": "2550R", "AIANNHR": "F" }, "geometry": { "type": "Point", "coordinates": [ -96.535750189156602, 42.092274186544515 ] } },
{ "type": "Feature", "properties": { "NAME": "Cold Springs", "NAMELSAD": "Cold Springs Rancheria", "GEOID": "0720R", "AIANNHR": "F" }, "geometry": { "type": "Point", "coordinates": [ -119.324232248834832, 36.971585679414019 ] } },
{ "type": "Feature", "properties": { "NAME": "Santa Rosa", "NAMELSAD": "Santa Rosa Reservation", "GEOID": "3525R", "AIANNHR": "F" }, "geometry": { "type": "Point", "coordinates": [ -116.528376763040683, 33.555035510612186 ] } },
{ "type": "Feature", "properties": { "NAME": "Menominee", "NAMELSAD": "Menominee Reservation", "GEOID": "2175R", "AIANNHR": "F" }, "geometry": { "type": "Point", "coordinates": [ -88.71139455390022, 45.00530412660936 ] } },
{ "type": "Feature", "properties": { "NAME": "Karuk", "NAMELSAD": "Karuk Reservation", "GEOID": "1750R", "AIANNHR": "F" }, "geometry": { "type": "Point", "coordinates": [ -123.420133788560889, 41.658686149954185 ] } },
{ "type": "Feature", "properties": { "NAME": "Table Bluff", "NAMELSAD": "Table Bluff Reservation", "GEOID": "4095R", "AIANNHR": "F" }, "geometry": { "type": "Point", "coordinates": [ -124.252179867251002, 40.690650203935306 ] } },
{ "type": "Feature", "properties": { "NAME": "Trinidad", "NAMELSAD": "Trinidad Rancheria", "GEOID": "4275R", "AIANNHR": "F" }, "geometry": { "type": "Point", "coordinates": [ -124.130492491748356, 41.054222899786275 ] } },
{ "type": "Feature", "properties": { "NAME": "Yurok", "NAMELSAD": "Yurok Reservation", "GEOID": "4760R", "AIANNHR": "F" }, "geometry": { "type": "Point", "coordinates": [ -123.891358686626418, 41.371099752731709 ] } },
{ "type": "Feature", "properties": { "NAME": "Bois Forte", "NAMELSAD": "Bois Forte Reservation", "GEOID": "0335R", "AIANNHR": "F" }, "geometry": { "type": "Point", "coordinates": [ -93.238396322605411, 48.049707342835923 ] } },
{ "type": "Feature", "properties": { "NAME": "Fond du Lac", "NAMELSAD": "Fond du Lac Reservation", "GEOID": "1125R", "AIANNHR": "F" }, "geometry": { "type": "Point", "coordinates": [ -92.616210975684211, 46.761007667802183 ] } },
{ "type": "Feature", "properties": { "NAME": "Stockbridge Munsee", "NAMELSAD": "Stockbridge Munsee Community", "GEOID": "4015R", "AIANNHR": "F" }, "geometry": { "type": "Point", "coordinates": [ -88.881446859442249, 44.911545161816122 ] } },
{ "type": "Feature", "properties": { "NAME": "Kalispel", "NAMELSAD": "Kalispel Reservation", "GEOID": "1735R", "AIANNHR": "F" }, "geometry": { "type": "Point", "coordinates": [ -117.277749400951876, 48.358371098607684 ] } },
{ "type": "Feature", "properties": { "NAME": "Coushatta", "NAMELSAD": "Coushatta Reservation", "GEOID": "0795R", "AIANNHR": "F" }, "geometry": { "type": "Point", "coordinates": [ -92.788160456882494, 30.52919449151981 ] } },
{ "type": "Feature", "properties": { "NAME": "Susanville", "NAMELSAD": "Susanville Indian Rancheria", "GEOID": "4060R", "AIANNHR": "F" }, "geometry": { "type": "Point", "coordinates": [ -120.644496804570338, 40.444271371798536 ] } },
{ "type": "Feature", "properties": { "NAME": "Mashantucket Pequot", "NAMELSAD": "Mashantucket Pequot Reservation", "GEOID": "2145R", "AIANNHR": "F" }, "geometry": { "type": "Point", "coordinates": [ -71.974702141503883, 41.466053760469869 ] } },
{ "type": "Feature", "properties": { "NAME": "Tama", "NAMELSAD": "Tama (state) Reservation", "GEOID": "9400R", "AIANNHR": "S" }, "geometry": { "type": "Point", "coordinates": [ -84.264673641347983, 30.862501926852051 ] } },
{ "type": "Feature", "properties": { "NAME": "Lac Vieux Desert", "NAMELSAD": "Lac Vieux Desert Reservation", "GEOID": "1830R", "AIANNHR": "F" }, "geometry": { "type": "Point", "coordinates": [ -89.144806535459878, 46.240186695901755 ] } },
{ "type": "Feature", "properties": { "NAME": "San Manuel", "NAMELSAD": "San Manuel Reservation", "GEOID": "3445R", "AIANNHR": "F" }, "geometry": { "type": "Point", "coordinates": [ -117.219302836556153, 34.155822895377419 ] } },
{ "type": "Feature", "properties": { "NAME": "Cowlitz", "NAMELSAD": "Cowlitz Reservation", "GEOID": "0820R", "AIANNHR": "F" }, "geometry": { "type": "Point", "coordinates": [ -122.707794544613449, 45.851718636777413 ] } },
{ "type": "Feature", "properties": { "NAME": "Barona", "NAMELSAD": "Barona Reservation", "GEOID": "0155R", "AIANNHR": "F" }, "geometry": { "type": "Point", "coordinates": [ -116.843599268791024, 32.955777333748777 ] } },
{ "type": "Feature", "properties": { "NAME": "Santa Ana", "NAMELSAD": "Santa Ana Pueblo", "GEOID": "3480R", "AIANNHR": "F" }, "geometry": { "type": "Point", "coordinates": [ -106.595292429678452, 35.432630484175029 ] } },
{ "type": "Feature", "properties": { "NAME": "Lower Brule", "NAMELSAD": "Lower Brule Reservation", "GEOID": "2030R", "AIANNHR": "F" }, "geometry": { "type": "Point", "coordinates": [ -99.765753608276384, 44.08832411476854 ] } },
{ "type": "Feature", "properties": { "NAME": "Jemez", "NAMELSAD": "Jemez Pueblo", "GEOID": "1685R", "AIANNHR": "F" }, "geometry": { "type": "Point", "coordinates": [ -106.794504582922428, 35.680358948694504 ] } },
{ "type": "Feature", "properties": { "NAME": "Jicarilla Apache Nation", "NAMELSAD": "Jicarilla Apache Nation Reservation", "GEOID": "1700R", "AIANNHR": "F" }, "geometry": { "type": "Point", "coordinates": [ -107.072397382063514, 36.555488362231607 ] } },
{ "type": "Feature", "properties": { "NAME": "San Felipe", "NAMELSAD": "San Felipe Pueblo", "GEOID": "3400R", "AIANNHR": "F" }, "geometry": { "type": "Point", "coordinates": [ -106.437989011572682, 35.429718545075112 ] } },
{ "type": "Feature", "properties": { "NAME": "Shingle Springs", "NAMELSAD": "Shingle Springs Rancheria", "GEOID": "3750R", "AIANNHR": "F" }, "geometry": { "type": "Point", "coordinates": [ -120.90487327082468, 38.696728353659999 ] } },
{ "type": "Feature", "properties": { "NAME": "Alabama-Coushatta", "NAMELSAD": "Alabama-Coushatta Reservation", "GEOID": "0050R", "AIANNHR": "F" }, "geometry": { "type": "Point", "coordinates": [ -94.704489739515466, 30.721107170985579 ] } },
{ "type": "Feature", "properties": { "NAME": "Rocky Boy's", "NAMELSAD": "Rocky Boy's Reservation", "GEOID": "3205R", "AIANNHR": "F" }, "geometry": { "type": "Point", "coordinates": [ -109.749753355868549, 48.220392236365811 ] } },
{ "type": "Feature", "properties": { "NAME": "Maricopa (Ak Chin)", "NAMELSAD": "Maricopa (Ak Chin) Indian Reservation", "GEOID": "2130R", "AIANNHR": "F" }, "geometry": { "type": "Point", "coordinates": [ -112.041988870705865, 33.007912155551523 ] } },
{ "type": "Feature", "properties": { "NAME": "Big Valley", "NAMELSAD": "Big Valley Rancheria", "GEOID": "0275R", "AIANNHR": "F" }, "geometry": { "type": "Point", "coordinates": [ -122.887141307722601, 39.020365013702943 ] } },
{ "type": "Feature", "properties": { "NAME": "Tunica-Biloxi", "NAMELSAD": "Tunica-Biloxi Reservation", "GEOID": "4315R", "AIANNHR": "F" }, "geometry": { "type": "Point", "coordinates": [ -92.053604382468535, 31.113217878956949 ] } },
{ "type": "Feature", "properties": { "NAME": "Rincon", "NAMELSAD": "Rincon Reservation", "GEOID": "3165R", "AIANNHR": "F" }, "geometry": { "type": "Point", "coordinates": [ -116.958999589993653, 33.264839183453454 ] } },
{ "type": "Feature", "properties": { "NAME": "Lac Courte Oreilles", "NAMELSAD": "Lac Courte Oreilles Reservation", "GEOID": "1815R", "AIANNHR": "F" }, "geometry": { "type": "Point", "coordinates": [ -91.318154121163118, 45.882321369356234 ] } },
{ "type": "Feature", "properties": { "NAME": "Bad River", "NAMELSAD": "Bad River Reservation", "GEOID": "0140R", "AIANNHR": "F" }, "geometry": { "type": "Point", "coordinates": [ -90.675679602469501, 46.531795593173655 ] } },
{ "type": "Feature", "properties": { "NAME": "Upper Sioux", "NAMELSAD": "Upper Sioux Community", "GEOID": "4445R", "AIANNHR": "F" }, "geometry": { "type": "Point", "coordinates": [ -95.505220329632209, 44.760539773894699 ] } },
{ "type": "Feature", "properties": { "NAME": "Taos", "NAMELSAD": "Taos Pueblo", "GEOID": "4140R", "AIANNHR": "F" }, "geometry": { "type": "Point", "coordinates": [ -105.511196324333397, 36.460343404592493 ] } },
{ "type": "Feature", "properties": { "NAME": "Kickapoo (TX)", "NAMELSAD": "Kickapoo (TX) Reservation", "GEOID": "1775R", "AIANNHR": "F" }, "geometry": { "type": "Point", "coordinates": [ -100.437102214184819, 28.610284027412348 ] } },
{ "type": "Feature", "properties": { "NAME": "Mille Lacs", "NAMELSAD": "Mille Lacs Reservation", "GEOID": "2270R", "AIANNHR": "F" }, "geometry": { "type": "Point", "coordinates": [ -93.641894256686342, 46.138649635713676 ] } },
{ "type": "Feature", "properties": { "NAME": "Catawba", "NAMELSAD": "Catawba Reservation", "GEOID": "0525R", "AIANNHR": "F" }, "geometry": { "type": "Point", "coordinates": [ -80.892289239799311, 34.915208489901666 ] } },
{ "type": "Feature", "properties": { "NAME": "Picuris", "NAMELSAD": "Picuris Pueblo", "GEOID": "2785R", "AIANNHR": "F" }, "geometry": { "type": "Point", "coordinates": [ -105.709369275330772, 36.200553906063021 ] } },
{ "type": "Feature", "properties": { "NAME": "Coyote Valley", "NAMELSAD": "Coyote Valley Reservation", "GEOID": "0825R", "AIANNHR": "F" }, "geometry": { "type": "Point", "coordinates": [ -123.208917195754907, 39.254182807035697 ] } },
{ "type": "Feature", "properties": { "NAME": "Guidiville", "NAMELSAD": "Guidiville Rancheria", "GEOID": "1400R", "AIANNHR": "F" }, "geometry": { "type": "Point", "coordinates": [ -123.169939917062862, 39.165430707731332 ] } },
{ "type": "Feature", "properties": { "NAME": "Nisqually", "NAMELSAD": "Nisqually Reservation", "GEOID": "2460R", "AIANNHR": "F" }, "geometry": { "type": "Point", "coordinates": [ -122.657525763268907, 47.019992495945601 ] } },
{ "type": "Feature", "properties": { "NAME": "Mescalero", "NAMELSAD": "Mescalero Reservation", "GEOID": "2205R", "AIANNHR": "F" }, "geometry": { "type": "Point", "coordinates": [ -105.61195925360424, 33.17848596025766 ] } },
{ "type": "Feature", "properties": { "NAME": "Port Madison", "NAMELSAD": "Port Madison Reservation", "GEOID": "2925R", "AIANNHR": "F" }, "geometry": { "type": "Point", "coordinates": [ -122.553204949522296, 47.738006508727963 ] } },
{ "type": "Feature", "properties": { "NAME": "Santee", "NAMELSAD": "Santee Reservation", "GEOID": "3565R", "AIANNHR": "F" }, "geometry": { "type": "Point", "coordinates": [ -97.830338361424438, 42.726351974245702 ] } },
{ "type": "Feature", "properties": { "NAME": "Umatilla", "NAMELSAD": "Umatilla Reservation", "GEOID": "4405R", "AIANNHR": "F" }, "geometry": { "type": "Point", "coordinates": [ -118.544013875989435, 45.627266573117325 ] } },
{ "type": "Feature", "properties": { "NAME": "Battle Mountain", "NAMELSAD": "Battle Mountain Reservation", "GEOID": "0165R", "AIANNHR": "F" }, "geometry": { "type": "Point", "coordinates": [ -116.96522595424905, 40.660312594445529 ] } },
{ "type": "Feature", "properties": { "NAME": "Colusa", "NAMELSAD": "Colusa Rancheria", "GEOID": "0750R", "AIANNHR": "F" }, "geometry": { "type": "Point", "coordinates": [ -122.024380875576512, 39.253456932196265 ] } },
{ "type": "Feature", "properties": { "NAME": "Cortina", "NAMELSAD": "Cortina Indian Rancheria", "GEOID": "0780R", "AIANNHR": "F" }, "geometry": { "type": "Point", "coordinates": [ -122.290411186837076, 39.01829638295829 ] } },
{ "type": "Feature", "properties": { "NAME": "Fort Peck", "NAMELSAD": "Fort Peck Indian Reservation", "GEOID": "1250R", "AIANNHR": "F" }, "geometry": { "type": "Point", "coordinates": [ -105.538219488870538, 48.361010471897245 ] } },
{ "type": "Feature", "properties": { "NAME": "Fort Bidwell", "NAMELSAD": "Fort Bidwell Reservation", "GEOID": "1170R", "AIANNHR": "F" }, "geometry": { "type": "Point", "coordinates": [ -120.187192649062425, 41.860937469998667 ] } },
{ "type": "Feature", "properties": { "NAME": "Likely", "NAMELSAD": "Likely Rancheria", "GEOID": "1955R", "AIANNHR": "F" }, "geometry": { "type": "Point", "coordinates": [ -120.478830835292058, 41.20476946169142 ] } },
{ "type": "Feature", "properties": { "NAME": "Lookout", "NAMELSAD": "Lookout Rancheria", "GEOID": "1980R", "AIANNHR": "F" }, "geometry": { "type": "Point", "coordinates": [ -121.093398339029633, 41.213875906686155 ] } },
{ "type": "Feature", "properties": { "NAME": "XL Ranch", "NAMELSAD": "XL Ranch Rancheria", "GEOID": "4680R", "AIANNHR": "F" }, "geometry": { "type": "Point", "coordinates": [ -120.479789053245284, 41.58589756999293 ] } },
{ "type": "Feature", "properties": { "NAME": "Prairie Island", "NAMELSAD": "Prairie Island Indian Community", "GEOID": "2985R", "AIANNHR": "F" }, "geometry": { "type": "Point", "coordinates": [ -92.652230422680503, 44.632444501084777 ] } },
{ "type": "Feature", "properties": { "NAME": "Pokagon", "NAMELSAD": "Pokagon Reservation", "GEOID": "2890R", "AIANNHR": "F" }, "geometry": { "type": "Point", "coordinates": [ -86.714084437538901, 41.77704106109482 ] } },
{ "type": "Feature", "properties": { "NAME": "Havasupai", "NAMELSAD": "Havasupai Reservation", "GEOID": "1440R", "AIANNHR": "F" }, "geometry": { "type": "Point", "coordinates": [ -112.613542947509416, 36.161000010917469 ] } },
{ "type": "Feature", "properties": { "NAME": "Hopi", "NAMELSAD": "Hopi Reservation", "GEOID": "1505R", "AIANNHR": "F" }, "geometry": { "type": "Point", "coordinates": [ -110.615914889978015, 35.912229644451237 ] } },
{ "type": "Feature", "properties": { "NAME": "Hualapai", "NAMELSAD": "Hualapai Indian Reservation", "GEOID": "1545R", "AIANNHR": "F" }, "geometry": { "type": "Point", "coordinates": [ -113.336427470652936, 35.833749289749157 ] } },
{ "type": "Feature", "properties": { "NAME": "Brighton", "NAMELSAD": "Brighton Reservation", "GEOID": "0360R", "AIANNHR": "F" }, "geometry": { "type": "Point", "coordinates": [ -81.069491048536094, 27.079524334291804 ] } },
{ "type": "Feature", "properties": { "NAME": "Allegany", "NAMELSAD": "Allegany Reservation", "GEOID": "0080R", "AIANNHR": "F" }, "geometry": { "type": "Point", "coordinates": [ -78.780547562610309, 42.101450914924868 ] } },
{ "type": "Feature", "properties": { "NAME": "Winnemucca", "NAMELSAD": "Winnemucca Indian Colony", "GEOID": "4635R", "AIANNHR": "F" }, "geometry": { "type": "Point", "coordinates": [ -117.72154938389707, 40.953085408071274 ] } },
{ "type": "Feature", "properties": { "NAME": "Snoqualmie", "NAMELSAD": "Snoqualmie Reservation", "GEOID": "3860R", "AIANNHR": "F" }, "geometry": { "type": "Point", "coordinates": [ -121.841713033611683, 47.519215078066189 ] } },
{ "type": "Feature", "properties": { "NAME": "Muckleshoot", "NAMELSAD": "Muckleshoot Reservation", "GEOID": "2375R", "AIANNHR": "F" }, "geometry": { "type": "Point", "coordinates": [ -122.147494165662579, 47.262204097175768 ] } },
{ "type": "Feature", "properties": { "NAME": "Puyallup", "NAMELSAD": "Puyallup Reservation", "GEOID": "3000R", "AIANNHR": "F" }, "geometry": { "type": "Point", "coordinates": [ -122.370892356448735, 47.243740562306719 ] } },
{ "type": "Feature", "properties": { "NAME": "Stillaguamish", "NAMELSAD": "Stillaguamish Reservation", "GEOID": "4000R", "AIANNHR": "F" }, "geometry": { "type": "Point", "coordinates": [ -122.185329329641831, 48.213006005187658 ] } },
{ "type": "Feature", "properties": { "NAME": "Tulalip", "NAMELSAD": "Tulalip Reservation", "GEOID": "4290R", "AIANNHR": "F" }, "geometry": { "type": "Point", "coordinates": [ -122.270587696854506, 48.077660889683074 ] } },
{ "type": "Feature", "properties": { "NAME": "Fort Hall", "NAMELSAD": "Fort Hall Reservation", "GEOID": "1185R", "AIANNHR": "F" }, "geometry": { "type": "Point", "coordinates": [ -112.365983568425435, 42.964650258143621 ] } },
{ "type": "Feature", "properties": { "NAME": "Oil Springs", "NAMELSAD": "Oil Springs Reservation", "GEOID": "2535R", "AIANNHR": "F" }, "geometry": { "type": "Point", "coordinates": [ -78.306974574410475, 42.231697374919762 ] } },
{ "type": "Feature", "properties": { "NAME": "Lac du Flambeau", "NAMELSAD": "Lac du Flambeau Reservation", "GEOID": "1825R", "AIANNHR": "F" }, "geometry": { "type": "Point", "coordinates": [ -89.877160813294921, 45.984860281182932 ] } },
{ "type": "Feature", "properties": { "NAME": "Campo", "NAMELSAD": "Campo Indian Reservation", "GEOID": "0450R", "AIANNHR": "F" }, "geometry": { "type": "Point", "coordinates": [ -116.363247774871184, 32.673651912124363 ] } },
{ "type": "Feature", "properties": { "NAME": "Hopland", "NAMELSAD": "Hopland Rancheria", "GEOID": "1515R", "AIANNHR": "F" }, "geometry": { "type": "Point", "coordinates": [ -123.039367318012012, 38.995376380083975 ] } },
{ "type": "Feature", "properties": { "NAME": "Las Vegas", "NAMELSAD": "Las Vegas Indian Colony", "GEOID": "1915R", "AIANNHR": "F" }, "geometry": { "type": "Point", "coordinates": [ -115.340410407536808, 36.34998426441237 ] } },
{ "type": "Feature", "properties": { "NAME": "Moapa River", "NAMELSAD": "Moapa River Indian Reservation", "GEOID": "2315R", "AIANNHR": "F" }, "geometry": { "type": "Point", "coordinates": [ -114.742311014270086, 36.570050875594212 ] } },
{ "type": "Feature", "properties": { "NAME": "Bay Mills", "NAMELSAD": "Bay Mills Reservation", "GEOID": "0170R", "AIANNHR": "F" }, "geometry": { "type": "Point", "coordinates": [ -84.532374718503746, 46.428612117085663 ] } },
{ "type": "Feature", "properties": { "NAME": "Osage", "NAMELSAD": "Osage Reservation", "GEOID": "2595R", "AIANNHR": "F" }, "geometry": { "type": "Point", "coordinates": [ -96.398492889683013, 36.629186676928249 ] } },
{ "type": "Feature", "properties": { "NAME": "Alturas", "NAMELSAD": "Alturas Indian Rancheria", "GEOID": "0095R", "AIANNHR": "F" }, "geometry": { "type": "Point", "coordinates": [ -120.524403668055967, 41.477654393112417 ] } },
{ "type": "Feature", "properties": { "NAME": "Cedarville", "NAMELSAD": "Cedarville Rancheria", "GEOID": "0555R", "AIANNHR": "F" }, "geometry": { "type": "Point", "coordinates": [ -120.183721537006605, 41.526249574491665 ] } },
{ "type": "Feature", "properties": { "NAME": "Schaghticoke", "NAMELSAD": "Schaghticoke (state) Reservation", "GEOID": "9350R", "AIANNHR": "S" }, "geometry": { "type": "Point", "coordinates": [ -73.509125419818361, 41.692508979169673 ] } },
{ "type": "Feature", "properties": { "NAME": "Auburn", "NAMELSAD": "Auburn Rancheria", "GEOID": "0120R", "AIANNHR": "F" }, "geometry": { "type": "Point", "coordinates": [ -121.314820570728159, 38.840352065408716 ] } },
{ "type": "Feature", "properties": { "NAME": "Poospatuck", "NAMELSAD": "Poospatuck (state) Reservation", "GEOID": "9300R", "AIANNHR": "S" }, "geometry": { "type": "Point", "coordinates": [ -72.831977609506055, 40.789184651995441 ] } },
{ "type": "Feature", "properties": { "NAME": "Yomba", "NAMELSAD": "Yomba Reservation", "GEOID": "4740R", "AIANNHR": "F" }, "geometry": { "type": "Point", "coordinates": [ -117.440960841748236, 38.983169877728152 ] } },
{ "type": "Feature", "properties": { "NAME": "Sault Ste. Marie", "NAMELSAD": "Sault Ste. Marie Reservation", "GEOID": "3635R", "AIANNHR": "F" }, "geometry": { "type": "Point", "coordinates": [ -84.229180865220727, 46.473341261045604 ] } },
{ "type": "Feature", "properties": { "NAME": "Burns Paiute", "NAMELSAD": "Burns Paiute Indian Colony", "GEOID": "0400R", "AIANNHR": "F" }, "geometry": { "type": "Point", "coordinates": [ -119.059205184965933, 43.602398167771888 ] } },
{ "type": "Feature", "properties": { "NAME": "Lummi", "NAMELSAD": "Lummi Reservation", "GEOID": "2070R", "AIANNHR": "F" }, "geometry": { "type": "Point", "coordinates": [ -122.64042951512053, 48.767523669954159 ] } },
{ "type": "Feature", "properties": { "NAME": "Nooksack", "NAMELSAD": "Nooksack Reservation", "GEOID": "2475R", "AIANNHR": "F" }, "geometry": { "type": "Point", "coordinates": [ -122.214810338664023, 48.823032716425381 ] } },
{ "type": "Feature", "properties": { "NAME": "Tesuque", "NAMELSAD": "Tesuque Pueblo", "GEOID": "4170R", "AIANNHR": "F" }, "geometry": { "type": "Point", "coordinates": [ -105.976180340927002, 35.802928548559905 ] } },
{ "type": "Feature", "properties": { "NAME": "Narragansett", "NAMELSAD": "Narragansett Reservation", "GEOID": "2415R", "AIANNHR": "F" }, "geometry": { "type": "Point", "coordinates": [ -71.667574461549961, 41.409450314194643 ] } },
{ "type": "Feature", "properties": { "NAME": "Immokalee", "NAMELSAD": "Immokalee Reservation", "GEOID": "1555R", "AIANNHR": "F" }, "geometry": { "type": "Point", "coordinates": [ -81.409478153025475, 26.403920746236007 ] } },
{ "type": "Feature", "properties": { "NAME": "Red Lake", "NAMELSAD": "Red Lake Reservation", "GEOID": "3100R", "AIANNHR": "F" }, "geometry": { "type": "Point", "coordinates": [ -95.101440426186571, 48.157393581572933 ] } },
{ "type": "Feature", "properties": { "NAME": "Paskenta", "NAMELSAD": "Paskenta Rancheria", "GEOID": "2685R", "AIANNHR": "F" }, "geometry": { "type": "Point", "coordinates": [ -122.224503525032873, 39.868098992271001 ] } },
{ "type": "Feature", "properties": { "NAME": "Standing Rock", "NAMELSAD": "Standing Rock Reservation", "GEOID": "3970R", "AIANNHR": "F" }, "geometry": { "type": "Point", "coordinates": [ -101.148291437700394, 45.833378959307872 ] } },
{ "type": "Feature", "properties": { "NAME": "Northwestern Shoshone", "NAMELSAD": "Northwestern Shoshone Reservation", "GEOID": "2505R", "AIANNHR": "F" }, "geometry": { "type": "Point", "coordinates": [ -112.236892033690964, 41.946913109390906 ] } },
{ "type": "Feature", "properties": { "NAME": "Sycuan", "NAMELSAD": "Sycuan Reservation", "GEOID": "4090R", "AIANNHR": "F" }, "geometry": { "type": "Point", "coordinates": [ -116.832603986345674, 32.779485478420597 ] } },
{ "type": "Feature", "properties": { "NAME": "Colville", "NAMELSAD": "Colville Reservation", "GEOID": "0760R", "AIANNHR": "F" }, "geometry": { "type": "Point", "coordinates": [ -118.872886230535741, 48.229453134006143 ] } },
{ "type": "Feature", "properties": { "NAME": "Fort McDowell Yavapai Nation", "NAMELSAD": "Fort McDowell Yavapai Nation Reservation", "GEOID": "1220R", "AIANNHR": "F" }, "geometry": { "type": "Point", "coordinates": [ -111.664480751049098, 33.641234955840162 ] } },
{ "type": "Feature", "properties": { "NAME": "Gila River", "NAMELSAD": "Gila River Indian Reservation", "GEOID": "1310R", "AIANNHR": "F" }, "geometry": { "type": "Point", "coordinates": [ -111.927234092192975, 33.154230314418449 ] } },
{ "type": "Feature", "properties": { "NAME": "Salt River", "NAMELSAD": "Salt River Reservation", "GEOID": "3340R", "AIANNHR": "F" }, "geometry": { "type": "Point", "coordinates": [ -111.793897958646482, 33.519842121282466 ] } },
{ "type": "Feature", "properties": { "NAME": "Coquille", "NAMELSAD": "Coquille Reservation", "GEOID": "0775R", "AIANNHR": "F" }, "geometry": { "type": "Point", "coordinates": [ -124.025071713833711, 43.086643700756106 ] } },
{ "type": "Feature", "properties": { "NAME": "Cahuilla", "NAMELSAD": "Cahuilla Reservation", "GEOID": "0435R", "AIANNHR": "F" }, "geometry": { "type": "Point", "coordinates": [ -116.711756047468768, 33.520237631685362 ] } },
{ "type": "Feature", "properties": { "NAME": "Colorado River", "NAMELSAD": "Colorado River Indian Reservation", "GEOID": "0735R", "AIANNHR": "F" }, "geometry": { "type": "Point", "coordinates": [ -114.388646855912981, 33.931709703838713 ] } },
{ "type": "Feature", "properties": { "NAME": "Morongo", "NAMELSAD": "Morongo Reservation", "GEOID": "2360R", "AIANNHR": "F" }, "geometry": { "type": "Point", "coordinates": [ -116.807827642846092, 33.952870057466072 ] } },
{ "type": "Feature", "properties": { "NAME": "Pechanga", "NAMELSAD": "Pechanga Reservation", "GEOID": "2745R", "AIANNHR": "F" }, "geometry": { "type": "Point", "coordinates": [ -117.059782456951112, 33.447093292720787 ] } },
{ "type": "Feature", "properties": { "NAME": "Annette Island", "NAMELSAD": "Annette Island Reserve", "GEOID": "0110R", "AIANNHR": "F" }, "geometry": { "type": "Point", "coordinates": [ -131.483446007989357, 55.128405648356569 ] } },
{ "type": "Feature", "properties": { "NAME": "Turtle Mountain", "NAMELSAD": "Turtle Mountain Reservation", "GEOID": "4345R", "AIANNHR": "F" }, "geometry": { "type": "Point", "coordinates": [ -99.788547915934046, 48.848871790941445 ] } },
{ "type": "Feature", "properties": { "NAME": "Poarch Creek", "NAMELSAD": "Poarch Creek Reservation", "GEOID": "2865R", "AIANNHR": "F" }, "geometry": { "type": "Point", "coordinates": [ -87.378771989548909, 31.293684558109394 ] } },
{ "type": "Feature", "properties": { "NAME": "Agua Caliente", "NAMELSAD": "Agua Caliente Indian Reservation", "GEOID": "0020R", "AIANNHR": "F" }, "geometry": { "type": "Point", "coordinates": [ -116.530244012819537, 33.787773640381118 ] } },
{ "type": "Feature", "properties": { "NAME": "Yankton", "NAMELSAD": "Yankton Reservation", "GEOID": "4700R", "AIANNHR": "F" }, "geometry": { "type": "Point", "coordinates": [ -98.37605813884187, 43.108630561168646 ] } },
{ "type": "Feature", "properties": { "NAME": "Ely", "NAMELSAD": "Ely Reservation", "GEOID": "1040R", "AIANNHR": "F" }, "geometry": { "type": "Point", "coordinates": [ -114.92609947704652, 39.248831007776033 ] } },
{ "type": "Feature", "properties": { "NAME": "Siletz", "NAMELSAD": "Siletz Reservation", "GEOID": "3795R", "AIANNHR": "F" }, "geometry": { "type": "Point", "coordinates": [ -123.775960175267258, 44.736605131320452 ] } },
{ "type": "Feature", "properties": { "NAME": "Fort Apache", "NAMELSAD": "Fort Apache Reservation", "GEOID": "1140R", "AIANNHR": "F" }, "geometry": { "type": "Point", "coordinates": [ -110.13279886886572, 33.928440318612402 ] } },
{ "type": "Feature", "properties": { "NAME": "Zuni", "NAMELSAD": "Zuni Reservation", "GEOID": "4785R", "AIANNHR": "F" }, "geometry": { "type": "Point", "coordinates": [ -108.800778791854199, 35.044312482456817 ] } },
{ "type": "Feature", "properties": { "NAME": "Uintah and Ouray", "NAMELSAD": "Uintah and Ouray Reservation", "GEOID": "4390R", "AIANNHR": "F" }, "geometry": { "type": "Point", "coordinates": [ -110.090448843494741, 40.094744114197596 ] } },
{ "type": "Feature", "properties": { "NAME": "Pauma and Yuima", "NAMELSAD": "Pauma and Yuima Reservation", "GEOID": "2715R", "AIANNHR": "F" }, "geometry": { "type": "Point", "coordinates": [ -116.955115968164733, 33.363197219518845 ] } },
{ "type": "Feature", "properties": { "NAME": "Elk Valley", "NAMELSAD": "Elk Valley Rancheria", "GEOID": "1010R", "AIANNHR": "F" }, "geometry": { "type": "Point", "coordinates": [ -124.156507419786749, 41.760325748930839 ] } },
{ "type": "Feature", "properties": { "NAME": "Resighini", "NAMELSAD": "Resighini Rancheria", "GEOID": "3145R", "AIANNHR": "F" }, "geometry": { "type": "Point", "coordinates": [ -124.016624465963929, 41.514512936303142 ] } },
{ "type": "Feature", "properties": { "NAME": "Big Cypress", "NAMELSAD": "Big Cypress Reservation", "GEOID": "0225R", "AIANNHR": "F" }, "geometry": { "type": "Point", "coordinates": [ -80.969003582716454, 26.294218823899183 ] } },
{ "type": "Feature", "properties": { "NAME": "Yakama Nation", "NAMELSAD": "Yakama Nation Reservation", "GEOID": "4690R", "AIANNHR": "F" }, "geometry": { "type": "Point", "coordinates": [ -120.82580013911776, 46.239729134277461 ] } },
{ "type": "Feature", "properties": { "NAME": "Lovelock", "NAMELSAD": "Lovelock Indian Colony", "GEOID": "2015R", "AIANNHR": "F" }, "geometry": { "type": "Point", "coordinates": [ -118.483210727886245, 40.173900117354862 ] } },
{ "type": "Feature", "properties": { "NAME": "Houlton Maliseet", "NAMELSAD": "Houlton Maliseet Reservation", "GEOID": "1530R", "AIANNHR": "F" }, "geometry": { "type": "Point", "coordinates": [ -67.807579916573104, 46.182730760610461 ] } },
{ "type": "Feature", "properties": { "NAME": "Penobscot", "NAMELSAD": "Penobscot Reservation", "GEOID": "2760R", "AIANNHR": "F" }, "geometry": { "type": "Point", "coordinates": [ -68.587450737304692, 45.229801678931373 ] } },
{ "type": "Feature", "properties": { "NAME": "Reno-Sparks", "NAMELSAD": "Reno-Sparks Indian Colony", "GEOID": "3130R", "AIANNHR": "F" }, "geometry": { "type": "Point", "coordinates": [ -119.760473909672129, 39.710676943269611 ] } },
{ "type": "Feature", "properties": { "NAME": "Red Cliff", "NAMELSAD": "Red Cliff Reservation", "GEOID": "3085R", "AIANNHR": "F" }, "geometry": { "type": "Point", "coordinates": [ -90.845978132730011, 46.913154942081526 ] } },
{ "type": "Feature", "properties": { "NAME": "Elko", "NAMELSAD": "Elko Colony", "GEOID": "1005R", "AIANNHR": "F" }, "geometry": { "type": "Point", "coordinates": [ -115.768680065359234, 40.850310390281734 ] } },
{ "type": "Feature", "properties": { "NAME": "Round Valley", "NAMELSAD": "Round Valley Reservation", "GEOID": "3250R", "AIANNHR": "F" }, "geometry": { "type": "Point", "coordinates": [ -123.237570173601171, 39.893930514355667 ] } },
{ "type": "Feature", "properties": { "NAME": "Fort McDermitt", "NAMELSAD": "Fort McDermitt Indian Reservation", "GEOID": "1210R", "AIANNHR": "F" }, "geometry": { "type": "Point", "coordinates": [ -117.657480820163101, 41.955973044338137 ] } },
{ "type": "Feature", "properties": { "NAME": "Dresslerville", "NAMELSAD": "Dresslerville Colony", "GEOID": "0940R", "AIANNHR": "F" }, "geometry": { "type": "Point", "coordinates": [ -119.706734614555415, 38.894363703731209 ] } },
{ "type": "Feature", "properties": { "NAME": "Tuscarora Nation", "NAMELSAD": "Tuscarora Nation Reservation", "GEOID": "4360R", "AIANNHR": "F" }, "geometry": { "type": "Point", "coordinates": [ -78.95086628807546, 43.162882425133517 ] } },
{ "type": "Feature", "properties": { "NAME": "Soboba", "NAMELSAD": "Soboba Reservation", "GEOID": "3870R", "AIANNHR": "F" }, "geometry": { "type": "Point", "coordinates": [ -116.885007986347944, 33.778581596442621 ] } },
{ "type": "Feature", "properties": { "NAME": "Torres-Martinez", "NAMELSAD": "Torres-Martinez Reservation", "GEOID": "4255R", "AIANNHR": "F" }, "geometry": { "type": "Point", "coordinates": [ -116.067028693349116, 33.473544731570847 ] } },
{ "type": "Feature", "properties": { "NAME": "Grindstone", "NAMELSAD": "Grindstone Indian Rancheria", "GEOID": "1395R", "AIANNHR": "F" }, "geometry": { "type": "Point", "coordinates": [ -122.517918916519008, 39.67198067615432 ] } },
{ "type": "Feature", "properties": { "NAME": "Blackfeet", "NAMELSAD": "Blackfeet Indian Reservation", "GEOID": "0305R", "AIANNHR": "F" }, "geometry": { "type": "Point", "coordinates": [ -112.872150551346181, 48.659029922895208 ] } },
{ "type": "Feature", "properties": { "NAME": "Sandia", "NAMELSAD": "Sandia Pueblo", "GEOID": "3370R", "AIANNHR": "F" }, "geometry": { "type": "Point", "coordinates": [ -106.546296559711095, 35.246755666233284 ] } },
{ "type": "Feature", "properties": { "NAME": "Kickapoo (KS)", "NAMELSAD": "Kickapoo (KS) Reservation", "GEOID": "1770R", "AIANNHR": "F" }, "geometry": { "type": "Point", "coordinates": [ -95.611479377620284, 39.680801176020189 ] } },
{ "type": "Feature", "properties": { "NAME": "Sac and Fox/Meskwaki", "NAMELSAD": "Sac and Fox/Meskwaki Settlement", "GEOID": "3280R", "AIANNHR": "F" }, "geometry": { "type": "Point", "coordinates": [ -92.649546433258749, 41.98042100168206 ] } },
{ "type": "Feature", "properties": { "NAME": "Chemehuevi", "NAMELSAD": "Chemehuevi Reservation", "GEOID": "0585R", "AIANNHR": "F" }, "geometry": { "type": "Point", "coordinates": [ -114.388594021586428, 34.465069029020981 ] } },
{ "type": "Feature", "properties": { "NAME": "Big Sandy", "NAMELSAD": "Big Sandy Rancheria", "GEOID": "0265R", "AIANNHR": "F" }, "geometry": { "type": "Point", "coordinates": [ -119.464370553497844, 37.083049514629508 ] } },
{ "type": "Feature", "properties": { "NAME": "Eastern Cherokee", "NAMELSAD": "Eastern Cherokee Reservation", "GEOID": "0990R", "AIANNHR": "F" }, "geometry": { "type": "Point", "coordinates": [ -83.376779105984028, 35.449641672786086 ] } },
{ "type": "Feature", "properties": { "NAME": "Oneida (WI)", "NAMELSAD": "Oneida (WI) Reservation", "GEOID": "2560R", "AIANNHR": "F" }, "geometry": { "type": "Point", "coordinates": [ -88.205405903529453, 44.486854476136578 ] } },
{ "type": "Feature", "properties": { "NAME": "Chehalis", "NAMELSAD": "Chehalis Reservation", "GEOID": "0575R", "AIANNHR": "F" }, "geometry": { "type": "Point", "coordinates": [ -123.197271295391857, 46.817837424425356 ] } },
{ "type": "Feature", "properties": { "NAME": "Quinault", "NAMELSAD": "Quinault Reservation", "GEOID": "3040R", "AIANNHR": "F" }, "geometry": { "type": "Point", "coordinates": [ -124.138725953725427, 47.417990099631339 ] } },
{ "type": "Feature", "properties": { "NAME": "Squaxin Island", "NAMELSAD": "Squaxin Island Reservation", "GEOID": "3955R", "AIANNHR": "F" }, "geometry": { "type": "Point", "coordinates": [ -122.925833915881299, 47.191523078893177 ] } },
{ "type": "Feature", "properties": { "NAME": "Twenty-Nine Palms", "NAMELSAD": "Twenty-Nine Palms Reservation", "GEOID": "4375R", "AIANNHR": "F" }, "geometry": { "type": "Point", "coordinates": [ -116.131645091703263, 33.874515908515974 ] } },
{ "type": "Feature", "properties": { "NAME": "St. Croix", "NAMELSAD": "St. Croix Reservation", "GEOID": "3305R", "AIANNHR": "F" }, "geometry": { "type": "Point", "coordinates": [ -92.242015511463066, 45.662422692813607 ] } },
{ "type": "Feature", "properties": { "NAME": "Campbell", "NAMELSAD": "Campbell Ranch", "GEOID": "0440R", "AIANNHR": "F" }, "geometry": { "type": "Point", "coordinates": [ -119.208244149104232, 39.078195363125246 ] } },
{ "type": "Feature", "properties": { "NAME": "Goshute", "NAMELSAD": "Goshute Reservation", "GEOID": "1340R", "AIANNHR": "F" }, "geometry": { "type": "Point", "coordinates": [ -114.07031919531164, 39.871341673004544 ] } },
{ "type": "Feature", "properties": { "NAME": "Cow Creek", "NAMELSAD": "Cow Creek Reservation", "GEOID": "0815R", "AIANNHR": "F" }, "geometry": { "type": "Point", "coordinates": [ -123.150875045677694, 42.996950727574358 ] } },
{ "type": "Feature", "properties": { "NAME": "Viejas", "NAMELSAD": "Viejas Reservation", "GEOID": "4500R", "AIANNHR": "F" }, "geometry": { "type": "Point", "coordinates": [ -116.692556660523309, 32.850145771828814 ] } },
{ "type": "Feature", "properties": { "NAME": "Flandreau", "NAMELSAD": "Flandreau Reservation", "GEOID": "1100R", "AIANNHR": "F" }, "geometry": { "type": "Point", "coordinates": [ -96.573917581212982, 44.074154272781065 ] } },
{ "type": "Feature", "properties": { "NAME": "Hassanamisco", "NAMELSAD": "Hassanamisco (state) Reservation", "GEOID": "9150R", "AIANNHR": "S" }, "geometry": { "type": "Point", "coordinates": [ -71.704495673359133, 42.212011453459198 ] } },
{ "type": "Feature", "properties": { "NAME": "Ontonagon", "NAMELSAD": "Ontonagon Reservation", "GEOID": "2580R", "AIANNHR": "F" }, "geometry": { "type": "Point", "coordinates": [ -89.103237276875689, 46.973953103424016 ] } },
{ "type": "Feature", "properties": { "NAME": "Sauk-Suiattle", "NAMELSAD": "Sauk-Suiattle Reservation", "GEOID": "3625R", "AIANNHR": "F" }, "geometry": { "type": "Point", "coordinates": [ -121.548215066861943, 48.313084382275456 ] } },
{ "type": "Feature", "properties": { "NAME": "Swinomish", "NAMELSAD": "Swinomish Reservation", "GEOID": "4075R", "AIANNHR": "F" }, "geometry": { "type": "Point", "coordinates": [ -122.527242204343949, 48.401299357122028 ] } },
{ "type": "Feature", "properties": { "NAME": "Big Bend", "NAMELSAD": "Big Bend Rancheria", "GEOID": "0215R", "AIANNHR": "F" }, "geometry": { "type": "Point", "coordinates": [ -121.918895560725304, 41.026420549055139 ] } },
{ "type": "Feature", "properties": { "NAME": "Montgomery Creek", "NAMELSAD": "Montgomery Creek Rancheria", "GEOID": "2330R", "AIANNHR": "F" }, "geometry": { "type": "Point", "coordinates": [ -121.915658323876372, 40.834187455392659 ] } },
{ "type": "Feature", "properties": { "NAME": "Jackson", "NAMELSAD": "Jackson Rancheria", "GEOID": "1640R", "AIANNHR": "F" }, "geometry": { "type": "Point", "coordinates": [ -120.722623060859121, 38.384865283744126 ] } },
{ "type": "Feature", "properties": { "NAME": "Northern Cheyenne", "NAMELSAD": "Northern Cheyenne Indian Reservation", "GEOID": "2490R", "AIANNHR": "F" }, "geometry": { "type": "Point", "coordinates": [ -106.685285911687529, 45.535658905900448 ] } },
{ "type": "Feature", "properties": { "NAME": "Cattaraugus", "NAMELSAD": "Cattaraugus Reservation", "GEOID": "0540R", "AIANNHR": "F" }, "geometry": { "type": "Point", "coordinates": [ -79.019469504606136, 42.538131002893444 ] } },
{ "type": "Feature", "properties": { "NAME": "Tonawanda", "NAMELSAD": "Tonawanda Reservation", "GEOID": "4225R", "AIANNHR": "F" }, "geometry": { "type": "Point", "coordinates": [ -78.445048479419512, 43.068098281445771 ] } },
{ "type": "Feature", "properties": { "NAME": "Tule River", "NAMELSAD": "Tule River Reservation", "GEOID": "4300R", "AIANNHR": "F" }, "geometry": { "type": "Point", "coordinates": [ -118.714999621920825, 36.031015550612985 ] } },
{ "type": "Feature", "properties": { "NAME": "Wind River", "NAMELSAD": "Wind River Reservation", "GEOID": "4610R", "AIANNHR": "F" }, "geometry": { "type": "Point", "coordinates": [ -108.816096377085046, 43.280156235896236 ] } },
{ "type": "Feature", "properties": { "NAME": "Winnebago", "NAMELSAD": "Winnebago Reservation", "GEOID": "4625R", "AIANNHR": "F" }, "geometry": { "type": "Point", "coordinates": [ -96.597452295060563, 42.224939373557071 ] } },
{ "type": "Feature", "properties": { "NAME": "Huron Potawatomi", "NAMELSAD": "Huron Potawatomi Reservation", "GEOID": "1550R", "AIANNHR": "F" }, "geometry": { "type": "Point", "coordinates": [ -85.261168904032303, 42.105095446108336 ] } },
{ "type": "Feature", "properties": { "NAME": "Jamestown S'Klallam", "NAMELSAD": "Jamestown S'Klallam Reservation", "GEOID": "1655R", "AIANNHR": "F" }, "geometry": { "type": "Point", "coordinates": [ -123.004684243979355, 48.024232413478373 ] } },
{ "type": "Feature", "properties": { "NAME": "Ho-Chunk Nation", "NAMELSAD": "Ho-Chunk Nation Reservation", "GEOID": "1450R", "AIANNHR": "F" }, "geometry": { "type": "Point", "coordinates": [ -89.948838054151338, 43.602771198434588 ] } },
{ "type": "Feature", "properties": { "NAME": "Ramona", "NAMELSAD": "Ramona Village", "GEOID": "3070R", "AIANNHR": "F" }, "geometry": { "type": "Point", "coordinates": [ -116.697279963567425, 33.605673236934948 ] } },
{ "type": "Feature", "properties": { "NAME": "Upper Skagit", "NAMELSAD": "Upper Skagit Reservation", "GEOID": "4455R", "AIANNHR": "F" }, "geometry": { "type": "Point", "coordinates": [ -122.242868889895192, 48.54836860872318 ] } },
{ "type": "Feature", "properties": { "NAME": "MOWA Choctaw", "NAMELSAD": "MOWA Choctaw (state) Reservation", "GEOID": "9240R", "AIANNHR": "S" }, "geometry": { "type": "Point", "coordinates": [ -88.064896823929161, 31.18626881920094 ] } },
{ "type": "Feature", "properties": { "NAME": "Acoma", "NAMELSAD": "Acoma Pueblo", "GEOID": "0010R", "AIANNHR": "F" }, "geometry": { "type": "Point", "coordinates": [ -107.680126532884998, 34.867011763813245 ] } },
{ "type": "Feature", "properties": { "NAME": "Jena Band of Choctaw", "NAMELSAD": "Jena Band of Choctaw Reservation", "GEOID": "1690R", "AIANNHR": "F" }, "geometry": { "type": "Point", "coordinates": [ -92.44873962143626, 31.472291820722646 ] } },
{ "type": "Feature", "properties": { "NAME": "Lake Traverse", "NAMELSAD": "Lake Traverse Reservation", "GEOID": "1860R", "AIANNHR": "F" }, "geometry": { "type": "Point", "coordinates": [ -97.098594237469698, 45.645444826877657 ] } },
{ "type": "Feature", "properties": { "NAME": "South Fork", "NAMELSAD": "South Fork Reservation", "GEOID": "3930R", "AIANNHR": "F" }, "geometry": { "type": "Point", "coordinates": [ -115.608645914667136, 40.591541547048791 ] } },
{ "type": "Feature", "properties": { "NAME": "Wells", "NAMELSAD": "Wells Colony", "GEOID": "4580R", "AIANNHR": "F" }, "geometry": { "type": "Point", "coordinates": [ -114.979016628075215, 41.117016303813237 ] } },
{ "type": "Feature", "properties": { "NAME": "Santa Ynez", "NAMELSAD": "Santa Ynez Reservation", "GEOID": "3540R", "AIANNHR": "F" }, "geometry": { "type": "Point", "coordinates": [ -120.091417256812861, 34.602732930656053 ] } },
{ "type": "Feature", "properties": { "NAME": "Pyramid Lake Paiute", "NAMELSAD": "Pyramid Lake Paiute Reservation", "GEOID": "3010R", "AIANNHR": "F" }, "geometry": { "type": "Point", "coordinates": [ -119.537413597382368, 40.080609144493685 ] } },
{ "type": "Feature", "properties": { "NAME": "Yerington", "NAMELSAD": "Yerington Colony", "GEOID": "4725R", "AIANNHR": "F" }, "geometry": { "type": "Point", "coordinates": [ -119.170908965154013, 38.980844910731399 ] } },
{ "type": "Feature", "properties": { "NAME": "Skokomish", "NAMELSAD": "Skokomish Reservation", "GEOID": "3825R", "AIANNHR": "F" }, "geometry": { "type": "Point", "coordinates": [ -123.165752455171784, 47.348200346222072 ] } },
{ "type": "Feature", "properties": { "NAME": "Lower Elwha", "NAMELSAD": "Lower Elwha Reservation", "GEOID": "2040R", "AIANNHR": "F" }, "geometry": { "type": "Point", "coordinates": [ -123.671427211433425, 48.145364250668216 ] } },
{ "type": "Feature", "properties": { "NAME": "Makah", "NAMELSAD": "Makah Indian Reservation", "GEOID": "2085R", "AIANNHR": "F" }, "geometry": { "type": "Point", "coordinates": [ -124.63240580795842, 48.322184905991584 ] } },
{ "type": "Feature", "properties": { "NAME": "Quileute", "NAMELSAD": "Quileute Reservation", "GEOID": "3030R", "AIANNHR": "F" }, "geometry": { "type": "Point", "coordinates": [ -124.619406849788021, 47.906802877154107 ] } },
{ "type": "Feature", "properties": { "NAME": "Fallon Paiute-Shoshone", "NAMELSAD": "Fallon Paiute-Shoshone Colony", "GEOID": "1070R", "AIANNHR": "F" }, "geometry": { "type": "Point", "coordinates": [ -118.760691695564617, 39.484862452020543 ] } },
{ "type": "Feature", "properties": { "NAME": "Grand Portage", "NAMELSAD": "Grand Portage Reservation", "GEOID": "1355R", "AIANNHR": "F" }, "geometry": { "type": "Point", "coordinates": [ -89.759353572389514, 47.961597905203028 ] } },
{ "type": "Feature", "properties": { "NAME": "Hannahville", "NAMELSAD": "Hannahville Indian Community", "GEOID": "1410R", "AIANNHR": "F" }, "geometry": { "type": "Point", "coordinates": [ -87.400178667850412, 45.729618425826978 ] } },
{ "type": "Feature", "properties": { "NAME": "Table Mountain", "NAMELSAD": "Table Mountain Off-Reservation Trust Land", "GEOID": "4110T", "AIANNHR": "F" }, "geometry": { "type": "Point", "coordinates": [ -119.634389199896532, 36.983334156712601 ] } },
{ "type": "Feature", "properties": { "NAME": "Fallon Paiute-Shoshone (Reservation)", "NAMELSAD": "Fallon Paiute-Shoshone (Reservation) Off-Reservation Trust Land", "GEOID": "1075T", "AIANNHR": "F" }, "geometry": { "type": "Point", "coordinates": [ -118.579479595018213, 39.52286271335651 ] } },
{ "type": "Feature", "properties": { "NAME": "Manzanita", "NAMELSAD": "Manzanita Off-Reservation Trust Land", "GEOID": "2115T", "AIANNHR": "F" }, "geometry": { "type": "Point", "coordinates": [ -116.377914123399066, 32.749320576252593 ] } },
{ "type": "Feature", "properties": { "NAME": "Isabella", "NAMELSAD": "Isabella Off-Reservation Trust Land", "GEOID": "1610T", "AIANNHR": "F" }, "geometry": { "type": "Point", "coordinates": [ -84.150183629063534, 43.844398077667563 ] } },
{ "type": "Feature", "properties": { "NAME": "Pojoaque", "NAMELSAD": "Pojoaque Off-Reservation Trust Land", "GEOID": "2990T", "AIANNHR": "F" }, "geometry": { "type": "Point", "coordinates": [ -106.048574421766133, 35.677631537061259 ] } },
{ "type": "Feature", "properties": { "NAME": "Rosebud", "NAMELSAD": "Rosebud Off-Reservation Trust Land", "GEOID": "3235T", "AIANNHR": "F" }, "geometry": { "type": "Point", "coordinates": [ -100.491097251247751, 43.533012375305638 ] } },
{ "type": "Feature", "properties": { "NAME": "Spokane", "NAMELSAD": "Spokane Off-Reservation Trust Land", "GEOID": "3940T", "AIANNHR": "F" }, "geometry": { "type": "Point", "coordinates": [ -117.657410258408149, 47.91517295262593 ] } },
{ "type": "Feature", "properties": { "NAME": "Coos, Lower Umpqua, and Siuslaw", "NAMELSAD": "Coos, Lower Umpqua, and Siuslaw Off-Reservation Trust Land", "GEOID": "0770T", "AIANNHR": "F" }, "geometry": { "type": "Point", "coordinates": [ -124.129564921703945, 43.832003339588205 ] } },
{ "type": "Feature", "properties": { "NAME": "Pascua Pueblo Yaqui", "NAMELSAD": "Pascua Pueblo Yaqui Off-Reservation Trust Land", "GEOID": "2680T", "AIANNHR": "F" }, "geometry": { "type": "Point", "coordinates": [ -111.077853745324774, 32.118258361283566 ] } },
{ "type": "Feature", "properties": { "NAME": "Berry Creek", "NAMELSAD": "Berry Creek Off-Reservation Trust Land", "GEOID": "0200T", "AIANNHR": "F" }, "geometry": { "type": "Point", "coordinates": [ -121.506798098034295, 39.502398848006969 ] } },
{ "type": "Feature", "properties": { "NAME": "Enterprise", "NAMELSAD": "Enterprise Off-Reservation Trust Land", "GEOID": "1055T", "AIANNHR": "F" }, "geometry": { "type": "Point", "coordinates": [ -121.512795030530739, 39.050707051589178 ] } },
{ "type": "Feature", "properties": { "NAME": "Shakopee Mdewakanton Sioux", "NAMELSAD": "Shakopee Mdewakanton Sioux Off-Reservation Trust Land", "GEOID": "3680T", "AIANNHR": "F" }, "geometry": { "type": "Point", "coordinates": [ -97.68882530413822, 44.466433722392168 ] } },
{ "type": "Feature", "properties": { "NAME": "L'Anse", "NAMELSAD": "L'Anse Off-Reservation Trust Land", "GEOID": "1880T", "AIANNHR": "F" }, "geometry": { "type": "Point", "coordinates": [ -87.860640286229497, 46.614759818315591 ] } },
{ "type": "Feature", "properties": { "NAME": "Mississippi Choctaw", "NAMELSAD": "Mississippi Choctaw Off-Reservation Trust Land", "GEOID": "2300T", "AIANNHR": "F" }, "geometry": { "type": "Point", "coordinates": [ -89.413980259383095, 32.970908387458159 ] } },
{ "type": "Feature", "properties": { "NAME": "Duck Valley", "NAMELSAD": "Duck Valley Off-Reservation Trust Land", "GEOID": "0965T", "AIANNHR": "F" }, "geometry": { "type": "Point", "coordinates": [ -115.946986962609884, 41.790723138716665 ] } },
{ "type": "Feature", "properties": { "NAME": "Ute Mountain", "NAMELSAD": "Ute Mountain Off-Reservation Trust Land", "GEOID": "4470T", "AIANNHR": "F" }, "geometry": { "type": "Point", "coordinates": [ -109.569534214078402, 37.629698957704747 ] } },
{ "type": "Feature", "properties": { "NAME": "Shoalwater Bay", "NAMELSAD": "Shoalwater Bay Off-Reservation Trust Land", "GEOID": "3780T", "AIANNHR": "F" }, "geometry": { "type": "Point", "coordinates": [ -124.029122071559684, 46.733027595746329 ] } },
{ "type": "Feature", "properties": { "NAME": "Lower Sioux", "NAMELSAD": "Lower Sioux Off-Reservation Trust Land", "GEOID": "2055T", "AIANNHR": "F" }, "geometry": { "type": "Point", "coordinates": [ -95.018377828751198, 44.532529969853023 ] } },
{ "type": "Feature", "properties": { "NAME": "Sherwood Valley", "NAMELSAD": "Sherwood Valley Off-Reservation Trust Land", "GEOID": "3735T", "AIANNHR": "F" }, "geometry": { "type": "Point", "coordinates": [ -123.305706656995369, 39.401794573104432 ] } },
{ "type": "Feature", "properties": { "NAME": "San Pasqual", "NAMELSAD": "San Pasqual Off-Reservation Trust Land", "GEOID": "3460T", "AIANNHR": "F" }, "geometry": { "type": "Point", "coordinates": [ -116.998171222618808, 33.187136791903065 ] } },
{ "type": "Feature", "properties": { "NAME": "Mooretown", "NAMELSAD": "Mooretown Off-Reservation Trust Land", "GEOID": "2340T", "AIANNHR": "F" }, "geometry": { "type": "Point", "coordinates": [ -121.518772033392167, 39.469618519900514 ] } },
{ "type": "Feature", "properties": { "NAME": "Little Traverse Bay", "NAMELSAD": "Little Traverse Bay Off-Reservation Trust Land", "GEOID": "1963T", "AIANNHR": "F" }, "geometry": { "type": "Point", "coordinates": [ -85.007428066629629, 45.615410842652153 ] } },
{ "type": "Feature", "properties": { "NAME": "Miccosukee", "NAMELSAD": "Miccosukee Off-Reservation Trust Land", "GEOID": "2240T", "AIANNHR": "F" }, "geometry": { "type": "Point", "coordinates": [ -81.136596869926748, 26.678373943061118 ] } },
{ "type": "Feature", "properties": { "NAME": "Iowa (KS-NE)", "NAMELSAD": "Iowa (KS-NE) Off-Reservation Trust Land", "GEOID": "1590T", "AIANNHR": "F" }, "geometry": { "type": "Point", "coordinates": [ -95.382152778723622, 39.968935616508816 ] } },
{ "type": "Feature", "properties": { "NAME": "Sac and Fox Nation", "NAMELSAD": "Sac and Fox Nation Off-Reservation Trust Land", "GEOID": "3285T", "AIANNHR": "F" }, "geometry": { "type": "Point", "coordinates": [ -95.707540618423096, 39.839128844911315 ] } },
{ "type": "Feature", "properties": { "NAME": "Ysleta del Sur", "NAMELSAD": "Ysleta del Sur Off-Reservation Trust Land", "GEOID": "4755T", "AIANNHR": "F" }, "geometry": { "type": "Point", "coordinates": [ -106.052588600662773, 31.876623931852837 ] } },
{ "type": "Feature", "properties": { "NAME": "Robinson", "NAMELSAD": "Robinson Off-Reservation Trust Land", "GEOID": "3195T", "AIANNHR": "F" }, "geometry": { "type": "Point", "coordinates": [ -122.937629408315772, 39.052225419305756 ] } },
{ "type": "Feature", "properties": { "NAME": "Zia", "NAMELSAD": "Zia Off-Reservation Trust Land", "GEOID": "4770T", "AIANNHR": "F" }, "geometry": { "type": "Point", "coordinates": [ -106.797903996936739, 35.495570682357297 ] } },
{ "type": "Feature", "properties": { "NAME": "Warm Springs", "NAMELSAD": "Warm Springs Off-Reservation Trust Land", "GEOID": "4545T", "AIANNHR": "F" }, "geometry": { "type": "Point", "coordinates": [ -120.585833464217487, 45.559264877868252 ] } },
{ "type": "Feature", "properties": { "NAME": "North Fork", "NAMELSAD": "North Fork Off-Reservation Trust Land", "GEOID": "2495T", "AIANNHR": "F" }, "geometry": { "type": "Point", "coordinates": [ -119.991055739099153, 37.048916243259981 ] } },
{ "type": "Feature", "properties": { "NAME": "Picayune", "NAMELSAD": "Picayune Off-Reservation Trust Land", "GEOID": "2775T", "AIANNHR": "F" }, "geometry": { "type": "Point", "coordinates": [ -119.70362374426638, 37.21120978358087 ] } },
{ "type": "Feature", "properties": { "NAME": "Timbi-Sha Shoshone", "NAMELSAD": "Timbi-Sha Shoshone Off-Reservation Trust Land", "GEOID": "4180T", "AIANNHR": "F" }, "geometry": { "type": "Point", "coordinates": [ -116.87025692545653, 36.447935171443248 ] } },
{ "type": "Feature", "properties": { "NAME": "Blue Lake", "NAMELSAD": "Blue Lake Off-Reservation Trust Land", "GEOID": "0325T", "AIANNHR": "F" }, "geometry": { "type": "Point", "coordinates": [ -124.00079280704945, 40.885725155635413 ] } },
{ "type": "Feature", "properties": { "NAME": "Benton Paiute", "NAMELSAD": "Benton Paiute Off-Reservation Trust Land", "GEOID": "0185T", "AIANNHR": "F" }, "geometry": { "type": "Point", "coordinates": [ -118.522740615198316, 37.786522016788822 ] } },
{ "type": "Feature", "properties": { "NAME": "Bridgeport", "NAMELSAD": "Bridgeport Off-Reservation Trust Land", "GEOID": "0350T", "AIANNHR": "F" }, "geometry": { "type": "Point", "coordinates": [ -119.260720995883247, 38.312028159077805 ] } },
{ "type": "Feature", "properties": { "NAME": "Coconut Creek", "NAMELSAD": "Coconut Creek Trust Land", "GEOID": "0690T", "AIANNHR": "F" }, "geometry": { "type": "Point", "coordinates": [ -80.199833954997345, 26.27752874848785 ] } },
{ "type": "Feature", "properties": { "NAME": "Seminole (FL)", "NAMELSAD": "Seminole (FL) Trust Land", "GEOID": "3665T", "AIANNHR": "F" }, "geometry": { "type": "Point", "coordinates": [ -80.201816811739349, 26.10421248434697 ] } },
{ "type": "Feature", "properties": { "NAME": "Nambe", "NAMELSAD": "Nambe Off-Reservation Trust Land", "GEOID": "2400T", "AIANNHR": "F" }, "geometry": { "type": "Point", "coordinates": [ -105.823740581714134, 35.851111883655868 ] } },
{ "type": "Feature", "properties": { "NAME": "San Ildefonso", "NAMELSAD": "San Ildefonso Off-Reservation Trust Land", "GEOID": "3415T", "AIANNHR": "F" }, "geometry": { "type": "Point", "coordinates": [ -106.216567539269519, 35.881321591246511 ] } },
{ "type": "Feature", "properties": { "NAME": "Santa Clara", "NAMELSAD": "Santa Clara Off-Reservation Trust Land", "GEOID": "3495T", "AIANNHR": "F" }, "geometry": { "type": "Point", "coordinates": [ -106.229812899463553, 35.959013098622108 ] } },
{ "type": "Feature", "properties": { "NAME": "Tohono O'odham Nation", "NAMELSAD": "Tohono O'odham Nation Off-Reservation Trust Land", "GEOID": "4200T", "AIANNHR": "F" }, "geometry": { "type": "Point", "coordinates": [ -112.718679024800679, 32.963786260783927 ] } },
{ "type": "Feature", "properties": { "NAME": "Grand Traverse", "NAMELSAD": "Grand Traverse Off-Reservation Trust Land", "GEOID": "1370T", "AIANNHR": "F" }, "geometry": { "type": "Point", "coordinates": [ -85.568078411108772, 44.891334654208237 ] } },
{ "type": "Feature", "properties": { "NAME": "Little River", "NAMELSAD": "Little River Off-Reservation Trust Land", "GEOID": "1960T", "AIANNHR": "F" }, "geometry": { "type": "Point", "coordinates": [ -86.12864054268853, 44.208405296490497 ] } },
{ "type": "Feature", "properties": { "NAME": "Ponca (NE)", "NAMELSAD": "Ponca (NE) Trust Land", "GEOID": "2900T", "AIANNHR": "F" }, "geometry": { "type": "Point", "coordinates": [ -98.067516576223298, 42.699339343859329 ] } },
{ "type": "Feature", "properties": { "NAME": "Grand Ronde", "NAMELSAD": "Grand Ronde Off-Reservation Trust Land", "GEOID": "1365T", "AIANNHR": "F" }, "geometry": { "type": "Point", "coordinates": [ -123.526671698383566, 44.785620627708369 ] } },
{ "type": "Feature", "properties": { "NAME": "Port Gamble", "NAMELSAD": "Port Gamble Off-Reservation Trust Land", "GEOID": "2910T", "AIANNHR": "F" }, "geometry": { "type": "Point", "coordinates": [ -122.541636110256988, 47.833688505923476 ] } },
{ "type": "Feature", "properties": { "NAME": "Quartz Valley", "NAMELSAD": "Quartz Valley Off-Reservation Trust Land", "GEOID": "3020T", "AIANNHR": "F" }, "geometry": { "type": "Point", "coordinates": [ -122.939218214110696, 41.595335499695842 ] } },
{ "type": "Feature", "properties": { "NAME": "Tonto Apache", "NAMELSAD": "Tonto Apache Off-Reservation Trust Land", "GEOID": "4235T", "AIANNHR": "F" }, "geometry": { "type": "Point", "coordinates": [ -111.320817127300629, 34.221087252650968 ] } },
{ "type": "Feature", "properties": { "NAME": "Dry Creek", "NAMELSAD": "Dry Creek Off-Reservation Trust Land", "GEOID": "0955T", "AIANNHR": "F" }, "geometry": { "type": "Point", "coordinates": [ -122.860639816374473, 38.700897913121352 ] } },
{ "type": "Feature", "properties": { "NAME": "Stewarts Point", "NAMELSAD": "Stewarts Point Off-Reservation Trust Land", "GEOID": "3985T", "AIANNHR": "F" }, "geometry": { "type": "Point", "coordinates": [ -123.326793549355983, 38.651586416778642 ] } },
{ "type": "Feature", "properties": { "NAME": "Match-e-be-nash-she-wish Band of Pottawatomi", "NAMELSAD": "Match-e-be-nash-she-wish Band of Pottawatomi Off-Reservation Trust Land", "GEOID": "2150T", "AIANNHR": "F" }, "geometry": { "type": "Point", "coordinates": [ -85.673248109743838, 42.622103459748452 ] } },
{ "type": "Feature", "properties": { "NAME": "Fort Mojave", "NAMELSAD": "Fort Mojave Off-Reservation Trust Land", "GEOID": "1235T", "AIANNHR": "F" }, "geometry": { "type": "Point", "coordinates": [ -114.616089757672455, 34.851836235372318 ] } },
{ "type": "Feature", "properties": { "NAME": "Smith River", "NAMELSAD": "Smith River Off-Reservation Trust Land", "GEOID": "3855T", "AIANNHR": "F" }, "geometry": { "type": "Point", "coordinates": [ -124.204027132416201, 41.95684728821518 ] } },
{ "type": "Feature", "properties": { "NAME": "Pit River", "NAMELSAD": "Pit River Trust Land", "GEOID": "2835T", "AIANNHR": "F" }, "geometry": { "type": "Point", "coordinates": [ -121.717360808897979, 40.861980261318479 ] } },
{ "type": "Feature", "properties": { "NAME": "Chicken Ranch", "NAMELSAD": "Chicken Ranch Off-Reservation Trust Land", "GEOID": "0620T", "AIANNHR": "F" }, "geometry": { "type": "Point", "coordinates": [ -120.448367202296396, 37.927855888422364 ] } },
{ "type": "Feature", "properties": { "NAME": "Big Pine", "NAMELSAD": "Big Pine Off-Reservation Trust Land", "GEOID": "0250T", "AIANNHR": "F" }, "geometry": { "type": "Point", "coordinates": [ -118.277061808933666, 37.166974584724485 ] } },
{ "type": "Feature", "properties": { "NAME": "Laguna", "NAMELSAD": "Laguna Off-Reservation Trust Land", "GEOID": "1840T", "AIANNHR": "F" }, "geometry": { "type": "Point", "coordinates": [ -107.384770601046014, 35.212499694943197 ] } },
{ "type": "Feature", "properties": { "NAME": "Navajo Nation", "NAMELSAD": "Navajo Nation Off-Reservation Trust Land", "GEOID": "2430T", "AIANNHR": "F" }, "geometry": { "type": "Point", "coordinates": [ -108.158591668077975, 35.786893662523731 ] } },
{ "type": "Feature", "properties": { "NAME": "Summit Lake", "NAMELSAD": "Summit Lake Off-Reservation Trust Land", "GEOID": "4045T", "AIANNHR": "F" }, "geometry": { "type": "Point", "coordinates": [ -119.10002441801511, 41.508075317403197 ] } },
{ "type": "Feature", "properties": { "NAME": "Forest County Potawatomi", "NAMELSAD": "Forest County Potawatomi Off-Reservation Trust Land", "GEOID": "1135T", "AIANNHR": "F" }, "geometry": { "type": "Point", "coordinates": [ -88.699623624245376, 45.430067306605494 ] } },
{ "type": "Feature", "properties": { "NAME": "Sokaogon Chippewa", "NAMELSAD": "Sokaogon Chippewa Off-Reservation Trust Land", "GEOID": "3885T", "AIANNHR": "F" }, "geometry": { "type": "Point", "coordinates": [ -88.989159517494713, 45.506228811952163 ] } },
{ "type": "Feature", "properties": { "NAME": "Fort Belknap", "NAMELSAD": "Fort Belknap Off-Reservation Trust Land", "GEOID": "1150T", "AIANNHR": "F" }, "geometry": { "type": "Point", "coordinates": [ -108.96343200017408, 48.078265740804795 ] } },
{ "type": "Feature", "properties": { "NAME": "Leech Lake", "NAMELSAD": "Leech Lake Off-Reservation Trust Land", "GEOID": "1940T", "AIANNHR": "F" }, "geometry": { "type": "Point", "coordinates": [ -93.946795445018267, 47.270967939670449 ] } },
{ "type": "Feature", "properties": { "NAME": "White Earth", "NAMELSAD": "White Earth Off-Reservation Trust Land", "GEOID": "4595T", "AIANNHR": "F" }, "geometry": { "type": "Point", "coordinates": [ -95.358470375703973, 47.224272850153362 ] } },
{ "type": "Feature", "properties": { "NAME": "Wampanoag-Aquinnah", "NAMELSAD": "Wampanoag-Aquinnah Trust Land", "GEOID": "4530T", "AIANNHR": "F" }, "geometry": { "type": "Point", "coordinates": [ -70.794334147147396, 41.341406399276671 ] } },
{ "type": "Feature", "properties": { "NAME": "Cheyenne River", "NAMELSAD": "Cheyenne River Off-Reservation Trust Land", "GEOID": "0605T", "AIANNHR": "F" }, "geometry": { "type": "Point", "coordinates": [ -100.740856453534676, 44.394250476915595 ] } },
{ "type": "Feature", "properties": { "NAME": "Hoh", "NAMELSAD": "Hoh Off-Reservation Trust Land", "GEOID": "1460T", "AIANNHR": "F" }, "geometry": { "type": "Point", "coordinates": [ -124.396329839023139, 47.735091458989281 ] } },
{ "type": "Feature", "properties": { "NAME": "Kootenai", "NAMELSAD": "Kootenai Off-Reservation Trust Land", "GEOID": "1800T", "AIANNHR": "F" }, "geometry": { "type": "Point", "coordinates": [ -116.369442047182915, 48.781457085797101 ] } },
{ "type": "Feature", "properties": { "NAME": "Celilo", "NAMELSAD": "Celilo Village", "GEOID": "0560T", "AIANNHR": "F" }, "geometry": { "type": "Point", "coordinates": [ -120.96626135912966, 45.644594501052225 ] } },
{ "type": "Feature", "properties": { "NAME": "Crow", "NAMELSAD": "Crow Off-Reservation Trust Land", "GEOID": "0845T", "AIANNHR": "F" }, "geometry": { "type": "Point", "coordinates": [ -107.292739377453799, 46.033345670025248 ] } },
{ "type": "Feature", "properties": { "NAME": "Menominee", "NAMELSAD": "Menominee Off-Reservation Trust Land", "GEOID": "2175T", "AIANNHR": "F" }, "geometry": { "type": "Point", "coordinates": [ -88.749880033284057, 44.933851486069997 ] } },
{ "type": "Feature", "properties": { "NAME": "Karuk", "NAMELSAD": "Karuk Off-Reservation Trust Land", "GEOID": "1750T", "AIANNHR": "F" }, "geometry": { "type": "Point", "coordinates": [ -123.176467973753773, 41.685901188566838 ] } },
{ "type": "Feature", "properties": { "NAME": "Rohnerville (Rancheria)", "NAMELSAD": "Rohnerville (Rancheria) Trust Land", "GEOID": "3220T", "AIANNHR": "F" }, "geometry": { "type": "Point", "coordinates": [ -124.210044570292865, 40.627550170039591 ] } },
{ "type": "Feature", "properties": { "NAME": "Trinidad", "NAMELSAD": "Trinidad Off-Reservation Trust Land", "GEOID": "4275T", "AIANNHR": "F" }, "geometry": { "type": "Point", "coordinates": [ -124.098715435916162, 40.996925808123983 ] } },
{ "type": "Feature", "properties": { "NAME": "Bois Forte", "NAMELSAD": "Bois Forte Off-Reservation Trust Land", "GEOID": "0335T", "AIANNHR": "F" }, "geometry": { "type": "Point", "coordinates": [ -92.423750748522721, 47.849698061741989 ] } },
{ "type": "Feature", "properties": { "NAME": "Fond du Lac", "NAMELSAD": "Fond du Lac Off-Reservation Trust Land", "GEOID": "1125T", "AIANNHR": "F" }, "geometry": { "type": "Point", "coordinates": [ -91.942497384547295, 46.297217464608032 ] } },
{ "type": "Feature", "properties": { "NAME": "Stockbridge Munsee", "NAMELSAD": "Stockbridge Munsee Off-Reservation Trust Land", "GEOID": "4015T", "AIANNHR": "F" }, "geometry": { "type": "Point", "coordinates": [ -88.862702499705634, 44.897068777004776 ] } },
{ "type": "Feature", "properties": { "NAME": "Kalispel", "NAMELSAD": "Kalispel Off-Reservation Trust Land", "GEOID": "1735T", "AIANNHR": "F" }, "geometry": { "type": "Point", "coordinates": [ -117.32431714215339, 48.303239459511204 ] } },
{ "type": "Feature", "properties": { "NAME": "Coushatta", "NAMELSAD": "Coushatta Off-Reservation Trust Land", "GEOID": "0795T", "AIANNHR": "F" }, "geometry": { "type": "Point", "coordinates": [ -92.77567876771387, 30.535015709965936 ] } },
{ "type": "Feature", "properties": { "NAME": "Susanville", "NAMELSAD": "Susanville Off-Reservation Trust Land", "GEOID": "4060T", "AIANNHR": "F" }, "geometry": { "type": "Point", "coordinates": [ -120.528957804717209, 40.393496440723808 ] } },
{ "type": "Feature", "properties": { "NAME": "Mashantucket Pequot", "NAMELSAD": "Mashantucket Pequot Off-Reservation Trust Land", "GEOID": "2145T", "AIANNHR": "F" }, "geometry": { "type": "Point", "coordinates": [ -71.974997520152016, 41.457017567016507 ] } },
{ "type": "Feature", "properties": { "NAME": "Lac Vieux Desert", "NAMELSAD": "Lac Vieux Desert Off-Reservation Trust Land", "GEOID": "1830T", "AIANNHR": "F" }, "geometry": { "type": "Point", "coordinates": [ -89.254653682071378, 46.308658830958315 ] } },
{ "type": "Feature", "properties": { "NAME": "Barona", "NAMELSAD": "Barona Off-Reservation Trust Land", "GEOID": "0155T", "AIANNHR": "F" }, "geometry": { "type": "Point", "coordinates": [ -116.8612982890767, 32.935615323973558 ] } },
{ "type": "Feature", "properties": { "NAME": "Lower Brule", "NAMELSAD": "Lower Brule Off-Reservation Trust Land", "GEOID": "2030T", "AIANNHR": "F" }, "geometry": { "type": "Point", "coordinates": [ -100.164475754826043, 44.180179730597509 ] } },
{ "type": "Feature", "properties": { "NAME": "Jicarilla Apache Nation", "NAMELSAD": "Jicarilla Apache Nation Off-Reservation Trust Land", "GEOID": "1700T", "AIANNHR": "F" }, "geometry": { "type": "Point", "coordinates": [ -106.494800409908976, 36.873985157912962 ] } },
{ "type": "Feature", "properties": { "NAME": "Shingle Springs", "NAMELSAD": "Shingle Springs Off-Reservation Trust Land", "GEOID": "3750T", "AIANNHR": "F" }, "geometry": { "type": "Point", "coordinates": [ -120.912918872106701, 38.679643320976211 ] } },
{ "type": "Feature", "properties": { "NAME": "Alabama-Coushatta", "NAMELSAD": "Alabama-Coushatta Off-Reservation Trust Land", "GEOID": "0050T", "AIANNHR": "F" }, "geometry": { "type": "Point", "coordinates": [ -94.690419802047629, 30.732618405333042 ] } },
{ "type": "Feature", "properties": { "NAME": "Rocky Boy's", "NAMELSAD": "Rocky Boy's Off-Reservation Trust Land", "GEOID": "3205T", "AIANNHR": "F" }, "geometry": { "type": "Point", "coordinates": [ -109.902335455828791, 48.323544370195542 ] } },
{ "type": "Feature", "properties": { "NAME": "Maricopa (Ak Chin)", "NAMELSAD": "Maricopa (Ak Chin) Off-Reservation Trust Land", "GEOID": "2130T", "AIANNHR": "F" }, "geometry": { "type": "Point", "coordinates": [ -111.975069013398226, 33.019712384994975 ] } },
{ "type": "Feature", "properties": { "NAME": "Tunica-Biloxi", "NAMELSAD": "Tunica-Biloxi Off-Reservation Trust Land", "GEOID": "4315T", "AIANNHR": "F" }, "geometry": { "type": "Point", "coordinates": [ -92.071153604563392, 31.10230481735503 ] } },
{ "type": "Feature", "properties": { "NAME": "Rincon", "NAMELSAD": "Rincon Off-Reservation Trust Land", "GEOID": "3165T", "AIANNHR": "F" }, "geometry": { "type": "Point", "coordinates": [ -116.935825576176711, 33.262705323287008 ] } },
{ "type": "Feature", "properties": { "NAME": "Lac Courte Oreilles", "NAMELSAD": "Lac Courte Oreilles Off-Reservation Trust Land", "GEOID": "1815T", "AIANNHR": "F" }, "geometry": { "type": "Point", "coordinates": [ -91.550856954376158, 45.961189059140864 ] } },
{ "type": "Feature", "properties": { "NAME": "Upper Sioux", "NAMELSAD": "Upper Sioux Off-Reservation Trust Land", "GEOID": "4445T", "AIANNHR": "F" }, "geometry": { "type": "Point", "coordinates": [ -95.53701848919971, 44.76675169301879 ] } },
{ "type": "Feature", "properties": { "NAME": "Taos", "NAMELSAD": "Taos Off-Reservation Trust Land", "GEOID": "4140T", "AIANNHR": "F" }, "geometry": { "type": "Point", "coordinates": [ -105.596362390545721, 36.422927358243768 ] } },
{ "type": "Feature", "properties": { "NAME": "Kickapoo (TX)", "NAMELSAD": "Kickapoo (TX) Off-Reservation Trust Land", "GEOID": "1775T", "AIANNHR": "F" }, "geometry": { "type": "Point", "coordinates": [ -100.436549109624195, 28.615340613816443 ] } },
{ "type": "Feature", "properties": { "NAME": "Mille Lacs", "NAMELSAD": "Mille Lacs Off-Reservation Trust Land", "GEOID": "2270T", "AIANNHR": "F" }, "geometry": { "type": "Point", "coordinates": [ -92.614379476112248, 46.063118592664146 ] } },
{ "type": "Feature", "properties": { "NAME": "Catawba", "NAMELSAD": "Catawba Off-Reservation Trust Land", "GEOID": "0525T", "AIANNHR": "F" }, "geometry": { "type": "Point", "coordinates": [ -80.886159855018505, 34.908073735261503 ] } },
{ "type": "Feature", "properties": { "NAME": "Guidiville", "NAMELSAD": "Guidiville Off-Reservation Trust Land", "GEOID": "1400T", "AIANNHR": "F" }, "geometry": { "type": "Point", "coordinates": [ -123.148501740950508, 39.139044433577055 ] } },
{ "type": "Feature", "properties": { "NAME": "Minnesota Chippewa", "NAMELSAD": "Minnesota Chippewa Trust Land", "GEOID": "2285T", "AIANNHR": "F" }, "geometry": { "type": "Point", "coordinates": [ -93.690277187324497, 47.20667082242678 ] } },
{ "type": "Feature", "properties": { "NAME": "Umatilla", "NAMELSAD": "Umatilla Off-Reservation Trust Land", "GEOID": "4405T", "AIANNHR": "F" }, "geometry": { "type": "Point", "coordinates": [ -118.991681125880646, 45.910076486412919 ] } },
{ "type": "Feature", "properties": { "NAME": "Battle Mountain", "NAMELSAD": "Battle Mountain Off-Reservation Trust Land", "GEOID": "0165T", "AIANNHR": "F" }, "geometry": { "type": "Point", "coordinates": [ -116.964465446100604, 40.652336624756309 ] } },
{ "type": "Feature", "properties": { "NAME": "Fort Peck", "NAMELSAD": "Fort Peck Off-Reservation Trust Land", "GEOID": "1250T", "AIANNHR": "F" }, "geometry": { "type": "Point", "coordinates": [ -104.867516257273792, 48.155688072590905 ] } },
{ "type": "Feature", "properties": { "NAME": "Fort Bidwell", "NAMELSAD": "Fort Bidwell Off-Reservation Trust Land", "GEOID": "1170T", "AIANNHR": "F" }, "geometry": { "type": "Point", "coordinates": [ -120.176530883098479, 41.846990533991303 ] } },